Fuel Type Code,Station Name,Street Address,Intersection Directions,City,State,ZIP,Plus4,Station Phone,Status Code,Expected Date,Groups With Access Code,Access Days Time,Cards Accepted,BD Blends,NG Fill Type Code,NG PSI,EV Level1 EVSE Num,EV Level2 EVSE Num,EV DC Fast Count,EV Other Info,EV Network,EV Network Web,Geocode Status,Latitude,Longitude,Date Last Confirmed,ID,Updated At,Owner Type Code,Federal Agency ID,Federal Agency Name,Open Date,Hydrogen Status Link,NG Vehicle Class,LPG Primary,E85 Blender Pump,EV Connector Types,Country,Intersection Directions (French),Access Days Time (French),BD Blends (French),Groups With Access Code (French),Hydrogen Is Retail,Access Code,Access Detail Code,Federal Agency Code,Facility Type,CNG Dispenser Num,CNG On-Site Renewable Source,CNG Total Compression Capacity,CNG Storage Capacity,LNG On-Site Renewable Source,E85 Other Ethanol Blends,EV Pricing,EV Pricing (French),LPG Nozzle Types,Hydrogen Pressures,Hydrogen Standards,CNG Fill Type Code,CNG PSI,CNG Vehicle Class,LNG Vehicle Class,EV On-Site Renewable Source
ELEC,Los Angeles Convention Center,1201 S Figueroa St,West hall and South hall,Los Angeles,CA,90015,,213-741-1151,E,,Public,24 hours daily; pay lot,,,,,,12,,,Non-Networked,,200-9,34.04057,-118.268762,2019-05-09,1523,2020-01-21 18:34:38 UTC,P,,,1995-08-30,,,,,J1772,US,,,,Public,,public,,,PARKING_GARAGE,,,,,,,,,,,,,,,,
ELEC,Cherokee & Hollywood Parking Garage,1718 N Cherokee Ave,,Los Angeles,CA,90028,,213-550-9904,E,,Public,24 hours daily; pay lot,,,,,,4,,,Non-Networked,,200-8,34.102404,-118.334758,2019-05-09,1526,2020-01-21 18:34:38 UTC,P,,,1995-08-15,,,,,J1772,US,,,,Public,,public,,,PARKING_GARAGE,,,,,,,Free,,,,,,,,,
ELEC,CITYOFSANTAROSA,100 Santa Rosa Ave,"CITY HALL 1; Located at South end of breezeway, against building",Santa Rosa,CA,95404,,888-758-4389,E,,Public,24 hours daily,,,,,,2,,,ChargePoint Network,http://www.chargepoint.com/,200-9,38.4378748,-122.7108967,2020-02-14,1546,2020-02-14 10:15:20 UTC,,,,,,,,,J1772,US,,,,Public,,public,,,,,,,,,,"Pricing is based on length of time and kWh used. $0 per hour for the first 4 hours, and $10 per additional hour, $1 per kWh",,,,,,,,,
ELEC,California Air Resources Board,9530 Telstar Ave,,El Monte,CA,91731,,626-575-6800,E,,Public,24 hours daily,,,,,,4,,,Non-Networked,,GPS,34.06872,-118.064,2019-09-09,1583,2020-01-21 18:34:38 UTC,SG,,,1996-10-15,,,,,J1772,US,,,,Public,,public,,,STATE_GOV,,,,,,,Free,,,,,,,,,
ELEC,Scripps Green Hospital,10666 N Torrey Pines Rd,"Patient Parking Structure, level G",La Jolla,CA,92037,,858-554-9100,E,,Public,24 hours daily,,,,,,1,,,Non-Networked,,GPS,32.89947,-117.243,2019-12-12,6355,2020-01-21 18:34:38 UTC,P,,,1997-07-30,,,,,J1772,US,,,,Public,,public,,,HOSPITAL,,,,,,,Pay to Park,,,,,,,,,
ELEC,San Diego Wild Animal Park,15500 San Pasqual Valley Rd,,Escondido,CA,92027,,760-747-8702,E,,Public,24 hours daily,,,,,,2,,,Non-Networked,,200-9,33.098589,-117.004433,2019-02-06,6384,2020-01-21 18:34:38 UTC,P,,,2014-09-02,,,,,J1772,US,,,,Public,,public,,,PAY_LOT,,,,,,,Free,,,,,,,,,
ELEC,Galpin Motors,15421 Roscoe Blvd,,Sepulveda,CA,91343,,800-256-6219,E,,Public - Call ahead,Dealership business hours,,,,,,2,,,Non-Networked,,200-9,34.221665,-118.468371,2019-05-09,6405,2020-01-21 18:34:38 UTC,P,,,2012-12-11,,,,,J1772,US,,,,Public - Appeler à l'avance,,public,CALL,,CAR_DEALER,,,,,,,Free,,,,,,,,,
ELEC,Galleria at Tyler,1299 Galleria at Tyler,,Riverside,CA,92503,,951-351-3110,E,,Public,6am-12am daily,,,,,,4,,,Non-Networked,,GPS,33.909914,-117.459053,2020-02-06,6425,2020-02-06 21:24:11 UTC,P,,,1997-08-30,,,,,J1772,US,,,,Public,,public,,,SHOPPING_MALL,,,,,,,Free,,,,,,,,,
ELEC,City of Pasadena - Holly Street Garage,150 E Holly St,,Pasadena,CA,91103,,626-744-7665,E,,Public,24 hours daily; pay lot,,,,,,16,,,Non-Networked,,200-8,34.14762,-118.147111,2020-02-06,6505,2020-02-06 21:24:11 UTC,LG,,,1997-08-30,,,,,J1772,US,,,,Public,,public,,,PARKING_GARAGE,,,,,,,Free,,,,,,,,,
ELEC,City of Pasadena - De Lacey Garage,45 De Lacey Ave,,Pasadena,CA,91105,,626-744-7665,E,,Public,24 hours daily; pay lot,,,,,,2,,,Non-Networked,,200-8,34.145015,-118.152223,2019-05-09,6506,2020-01-21 18:34:38 UTC,LG,,,1997-08-30,,,,,J1772,US,,,,Public,,public,,,PARKING_GARAGE,,,,,,,Free,,,,,,,,,
ELEC,City of Pasadena - Schoolhouse Garage,33 E Green St,,Pasadena,CA,91105,,626-744-7665,E,,Public,24 hours daily; pay lot,,,,,,3,,,Non-Networked,,200-8,34.144506,-118.150015,2019-05-09,6507,2020-01-21 18:34:38 UTC,LG,,,1997-08-30,,,,,J1772,US,,,,Public,,public,,,PARKING_GARAGE,,,,,,,Free,,,,,,,,,
ELEC,Pasadena Hilton,150 S Los Robles,Located at valet and self parking,Pasadena,CA,91101,,626-577-1000,E,,Public,24 hours daily; for guest use only,,,,,,4,,,Non-Networked,,200-9,34.142973,-118.140553,2019-06-06,6508,2020-01-21 18:34:38 UTC,P,,,1997-08-31,,,,,J1772,US,,,,Public,,public,,,HOTEL,,,,,,,Free,,,,,,,,,
ELEC,Hyatt Regency Long Beach,200 S Pine Ave,,Long Beach,CA,90802,,562-491-1234,E,,Public,24 hours daily; pay lot; see valet for access,,,,,,1,,,Non-Networked,,GPS,33.7637,-118.192,2019-09-09,7172,2020-01-21 18:34:38 UTC,P,,,2012-05-04,,,,,J1772,US,,,,Public,,public,,,HOTEL,,,,,,,Free,,,,,,,,,
ELEC,Los Angeles International Airport (LAX) - Lot 6,1 World Way,Central Terminal Area (CTA) - P6,Los Angeles,CA,90045,,310-646-2911,E,,Public,24 hours daily; pay lot,,,,,,20,,,Non-Networked,,GPS,33.94325,-118.403342,2019-09-09,7184,2020-01-21 18:34:38 UTC,LG,,,1998-06-30,,,,,J1772,US,,,,Public,,public,,,AIRPORT,,,,,,,Free,,,,,,,,,
ELEC,Northridge Fashion Center - Yard House,9301 Tampa Ave,Located at Tampa & Nordhoff,Northridge,CA,91324,,818-885-9700,E,,Public,6am-12am daily,,,,,,2,,,Volta,https://voltacharging.com/,GPS,34.241116,-118.556708,2020-02-06,7192,2020-02-19 00:05:33 UTC,P,,,1998-05-30,,,,,J1772,US,,,,Public,,public,,,SHOPPING_MALL,,,,,,,Free,,,,,,,,,SOLAR
ELEC,Ontario Airport Hilton,700 N Haven Ave,,Ontario,CA,91764,,909-980-0400,E,,Public,24 hours daily; guest use only,,,,,,1,,,Non-Networked,,GPS,34.07122,-117.575,2019-09-09,7194,2020-01-21 18:34:38 UTC,P,,,1998-06-15,,,,,J1772,US,,,,Public,,public,,,HOTEL,,,,,,,Free,,,,,,,,,
ELEC,Courtyard Marriott - Oxnard Ventura,600 E Esplanade Dr,,Oxnard,CA,93030,,805-988-3600,E,,Public,24 hours daily; guest use only,,,,,,1,,,Non-Networked,,GPS,34.228315,-119.170865,2019-09-09,7195,2020-02-21 17:28:20 UTC,P,,,1998-05-30,,,,,J1772,US,,,,Public,,public,,,HOTEL,,,,,,,Free,,,,,,,,,
ELEC,Hilton - Palm Springs,400 E Tahquitz Canyon Way,,Palm Springs,CA,92262,,760-320-6868,E,,Public,24 hours daily; pay lot; priority given to registered guests,,,,,,1,,,Non-Networked,,GPS,33.823353,-116.5436,2019-09-09,7196,2020-01-21 18:34:38 UTC,P,,,2011-12-12,,,,,J1772,US,,,,Public,,public,,,HOTEL,,,,,,,Free,,,,,,,,,
ELEC,East Bay Mini,4340 Rosewood Dr,,Pleasanton,CA,94588,,925-251-7070,E,,Public,Dealership business hours,,,,,,2,,,Non-Networked,,200-8,37.700187,-121.876172,2019-10-04,7197,2020-01-21 18:34:38 UTC,P,,,2012-12-14,,,,,J1772,US,,,,Public,,public,,,CAR_DEALER,,,,,,,Free,,,,,,,,,
ELEC,CNTYOFRIVERSIDE,3535 12th Street,"12TH ST PRKNG#1; -
12TH ST PRKNG#2; -
12TH ST PRKNG#3; Near main entrance off 12th street
12TH ST PRKNG#4; Near main entrance off 12th street",Riverside,CA,92501,,888-758-4389,E,,Public,24 hours daily,,,,,,6,,,ChargePoint Network,http://www.chargepoint.com/,200-8,33.977163,-117.374653,2020-02-14,7205,2020-02-14 10:15:20 UTC,,,,,,,,,J1772,US,,,,Public,,public,,,,,,,,,,"Pricing is based on length of time and kWh used. $0 per hour for the first 4 hours, and $2 per additional hour, $0.34 per kWh",,,,,,,,,
ELEC,Inland Empire Foods,5425 Wilson St,,Riverside,CA,92509,,951-682-8222,E,,Public,"24 hours M-Th, 12am-4:30pm F",,,,,,3,,,Non-Networked,,GPS,34.0189,-117.38,2019-11-08,7206,2020-01-21 18:34:38 UTC,P,,,1998-05-30,,,,,J1772,US,,,,Public,,public,,,OFFICE_BLDG,,,,,,,Free,,,,,,,,,
ELEC,Sacramento International Airport - Daily A Lot,Lindbergh Dr,,Sacramento,CA,95837,,916-874-0670,E,,Public,24 hours daily; pay lot,,,,,,4,,1 SP Inductive,Non-Networked,,GPS,38.69005,-121.58889,2019-09-09,7212,2020-01-21 18:34:38 UTC,P,,,1998-06-30,,,,,J1772,US,,,,Public,,public,,,AIRPORT,,,,,,,Free,,,,,,,,,
ELEC,City of Santa Monica - Airport,3223 Donald Douglas Loop,,Santa Monica,CA,90405,,310-458-8516,E,,Public,24 hours daily,,,,,,3,,,Non-Networked,,200-9,34.017563,-118.447475,2019-04-08,7229,2020-01-21 18:34:38 UTC,LG,,,1998-06-30,,,,,J1772,US,,,,Public,,public,,,AIRPORT,,,,,,,Free,,,,,,,,,SOLAR
ELEC,City of Santa Monica - Pier,200 Santa Monica Pier,,Santa Monica,CA,90405,,310-458-8516,E,,Public,24 hours daily; pay lot,,,,,,3,,,Non-Networked,,200-9,34.010021,-118.49583,2019-04-08,7230,2020-01-21 18:34:38 UTC,LG,,,1998-06-30,,,,,J1772,US,,,,Public,,public,,,MUNI_GOV,,,,,,,Free,,,,,,,,,
ELEC,Westfield Fashion Square,14006 Riverside Dr,"level 1 of the Parking Garage near the main entrance, located across from 85°C Bakery Cafe",Sherman Oaks,CA,91423,,818-783-0550,E,,Public,6am-12am daily,,,,,,4,,,Volta,https://voltacharging.com/,GPS,34.156839,-118.434454,2020-02-06,7233,2020-02-19 00:05:33 UTC,P,,,1998-05-30,,,,,J1772,US,,,,Public,,public,,,SHOPPING_CENTER,,,,,,,Free,,,,,,,,,
ELEC,City of Temecula - 6th Street Lot,28462 Front St,Mercedes Street,Temecula,CA,92590,,951-694-6411,E,,Public,24 hours daily,,,,,,1,,,Non-Networked,,GPS,33.49605,-117.152,2019-08-08,7236,2020-01-21 18:34:38 UTC,LG,,,2011-12-31,,,,,J1772,US,,,,Public,,public,,,PARKING_LOT,,,,,,,Free,,,,,,,,,
ELEC,Van Nuys Amtrak/Metrolink Station,7724 Van Nuys Blvd,,Van Nuys,CA,91405,,800-371-5465,E,,Public,24 hours daily,,,,,,4,,,EV Connect,http://evconnect.com/,200-8,34.21108,-118.448704,2019-05-09,7245,2020-01-21 18:34:38 UTC,P,,,1998-06-30,,,,,J1772,US,,,,Public,,public,,,PARKING_LOT,,,,,,,Free,,,,,,,,,
ELEC,Office Max - Home Depot,7075 Firestone Blvd,,Downey,CA,90241,,562-806-6600,E,,Public,24 hours daily,,,,,,4,,,Non-Networked,,200-8,33.94756,-118.153806,2019-02-06,7250,2020-01-21 18:34:38 UTC,T,,,1998-06-15,,,,,J1772,US,,,,Public,,public,,,SHOPPING_CENTER,,,,,,,Free,,,,,,,,,
ELEC,City of Lancaster - City Hall,44933 Fern Ave,Located in the north side parking lot under the solar sun shade parking.,Lancaster,CA,93534,,661-723-6000,E,,Public,24 hours daily,,,,,,5,,,Non-Networked,,200-9,34.698914,-118.145218,2019-02-06,7275,2020-01-21 18:34:38 UTC,T,,,1998-06-30,,,,,J1772 TESLA,US,,,,Public,,public,,,MUNI_GOV,,,,,,,Free,,,,,,,,,SOLAR
ELEC,Hyatt at Fisherman's Wharf,555 N Point St,,San Francisco,CA,94133,,415-563-1234,E,,Public,24 hours daily; pay lot; see valet for access,,,,,,1,,,Non-Networked,,GPS,37.80619,-122.4152,2019-09-09,7280,2020-01-21 18:34:38 UTC,P,,,1998-07-01,,,,,J1772,US,,,,Public,,public,,,HOTEL,,,,,,,Free,,,,,,,,,
ELEC,Palace Hotel,2 New Montgomery St,,San Francisco,CA,94105,,415-512-1111,E,,Public,24 hours daily,,,,,,1,,,Non-Networked,,GPS,37.78881,-122.401,2019-09-09,21358,2020-01-21 18:34:38 UTC,P,,,2002-01-31,,,,,J1772,US,,,,Public,,public,,,HOTEL,,,,,,,$7 per session,,,,,,,,,
ELEC,Mark Hopkins InterContinental Hotel,999 California St,California at Mason,San Francisco,CA,94108,,415-392-3434,E,,Public,24 hours daily; for guest use only; see valet for access,,,,,,1,,,Non-Networked,,200-8,37.791791,-122.411265,2019-09-09,21360,2020-01-21 18:34:38 UTC,P,,,2002-01-31,,,,,J1772,US,,,,Public,,public,,,HOTEL,,,,,,,,,,,,,,,,
ELEC,Ellis O'Farrell Garage,123 O'Farrell St,At Powell Street,San Francisco,CA,94102,,415-986-4800,E,,Public,24 hours daily; pay lot,,,,,,2,,,Non-Networked,,200-9,37.786061,-122.407088,2019-05-09,21367,2020-01-21 18:34:38 UTC,LG,,,2002-01-31,,,,,J1772,US,,,,Public,,public,,,PARKING_GARAGE,,,,,,,Free,,,,,,,,,
ELEC,Hotel Sofitel,8555 Beverly Blvd,,Los Angeles,CA,90048,,310-278-5444,E,,Public,24 hours daily; for guest use only; see valet for access,,,,,,2,,,Non-Networked,,GPS,34.07631,-118.377,2019-09-09,21368,2020-01-21 18:34:38 UTC,P,,,2002-01-31,,,,,J1772,US,,,,Public,,public,,,HOTEL,,,,,,,Free,,,,,,,,,
ELEC,Music Center Parking - Level 2,135 N Grand Ave,"Music Center Parking Lot 14, level 2",Los Angeles,CA,90012,,213-972-7211  323-267-2023,E,,Public,"Garage business hours; pay lot; keypad activated, instructions on EVSE",,,,,,2,,,Non-Networked,,200-9,34.055974,-118.248893,2019-12-12,21374,2020-01-21 18:34:38 UTC,P,,,2002-01-31,,,,,J1772,US,,,,Public,,public,,,PAY_GARAGE,,,,,,,Free,,,,,,,,,
ELEC,Balboa Golf Course,16821 Burbank Blvd,,Encino,CA,91436,,818-995-1170,E,,Public,24 hours daily,,,,,,1,,,Non-Networked,,200-8,34.169242,-118.497212,2019-02-06,21383,2020-01-21 18:34:38 UTC,P,,,1998-06-15,,,,,J1772,US,,,,Public,,public,,,REC_SPORTS_FACILITY,,,,,,,,,,,,,,,,
ELEC,Tops Auto Park Garage,6464 Sunset Blvd,,Hollywood,CA,90028,,,E,,Public - Call ahead,Primarily for permit holder; public use will be charged extra,,,,,,4,,,Non-Networked,,GPS,34.097928,-118.331,2019-12-12,21388,2020-01-21 18:34:38 UTC,P,,,2012-06-15,,,,,J1772,US,,,,Public - Appeler à l'avance,,public,CALL,,PARKING_GARAGE,,,,,,,Free for first 30 minutes; $10 after first 30,,,,,,,,,
ELEC,California State University - Northridge,18111 Nordhoff St,Lot G9 structure; Near Zelzah and Kenzie second level parking,Northridge,CA,91330,,818-677-1200,E,,Public,24 hours daily; parking permit required,,,,,,2,,,Non-Networked,,GPS,34.248959,-118.523887,2019-06-06,21395,2020-01-21 18:34:38 UTC,P,,,2002-01-15,,,,,J1772,US,,,,Public,,public,,,COLLEGE_CAMPUS,,,,,,,Free,,,,,,,,,
ELEC,California State University - Northridge,18111 Nordhoff St,"Lot B4; Prairie St, near Darby Ave",Northridge,CA,91330,,818-677-1200,E,,Public,24 hours daily; parking permit required,,,,,,2,,,Non-Networked,,GPS,34.241687,-118.528543,2019-06-06,21396,2020-01-21 18:34:38 UTC,P,,,2002-01-15,,,,,J1772,US,,,,Public,,public,,,COLLEGE_CAMPUS,,,,,,,Free,,,,,,,,,
ELEC,California State University - Northridge,18111 Nordhoff St,"Surface lot B2; West side of Etiwanda, South of Prairie",Northridge,CA,91330,,818-677-1200,E,,Public,24 hours daily; parking permit required,,,,,,4,,,Non-Networked,,GPS,34.236853,-118.532588,2019-06-06,21397,2020-01-21 18:34:38 UTC,P,,,2002-01-15,,,,,J1772,US,,,,Public,,public,,,COLLEGE_CAMPUS,,,,,,,Free,,,,,,,,,
ELEC,Northridge Metrolink Station,8775 Wilbur Ave,,Northridge,CA,91324,,866-816-7584  800-371-5465,E,,Public,24 hours daily,,,,,,4,,,EV Connect,http://evconnect.com/,200-8,34.229277,-118.544827,2019-06-06,21398,2020-01-21 18:34:38 UTC,P,,,2019-04-01,,,,,J1772,US,,,,Public,,public,,,PARKING_LOT,,,,,,,,,,,,,,,,
ELEC,Los Angeles Harbor Department Headquarters,425 S Palos Verdes St,,San Pedro,CA,90731,,310-732-7678,E,,Public,8am-5pm daily,,,,,,4,,,Non-Networked,,200-9,33.740758,-118.28192,2019-11-08,21402,2020-01-21 18:34:38 UTC,P,,,2013-03-26,,,,,J1772,US,,,,Public,,public,,,PARKING_LOT,,,,,,,Free,,,,,,,,,
ELEC,City of Los Angeles - Constituent Service Center,8475 S Vermont Ave,,Los Angeles,CA,90044,,213-485-7616,E,,Public,24 hours daily,,,,,,2,,,Non-Networked,,200-8,33.961256,-118.29187,2019-03-07,21405,2020-01-21 18:34:38 UTC,P,,,2002-01-31,,,,,J1772,US,,,,Public,,public,,,MUNI_GOV,,,,,,,Free,,,,,,,,,
ELEC,Sylmar Metrolink Station,Village Way Dr,,San Fernando,CA,91342,,866-816-7584  818-237-7641,E,,Public,24 hours daily,,,,,,4,,,EV Connect,http://evconnect.com/,GPS,34.2924134,-118.4497914,2019-06-06,21414,2020-01-21 18:34:38 UTC,P,,,2019-04-01,,,,,J1772,US,,,,Public,,public,,,PARKING_LOT,,,,,,,Free,,,,,,,,,
ELEC,Getty Center,1200 Getty Center Dr,Eight Level 2 and four Level 1 chargers located in P2 of main parking area. Eight Level 2 and eight Level 1 chargers located at Top of Hill Parking.,Los Angeles,CA,90049,,310-440-7300,E,,Public,Garage business hours; pay lot,,,,,12,16,,,Non-Networked,,200-9,34.077588,-118.474585,2019-05-09,21419,2020-01-21 18:34:38 UTC,P,,,2013-07-01,,,,,J1772 NEMA520,US,,,,Public,,public,,,PARKING_GARAGE,,,,,,,Free,,,,,,,,,
ELEC,Los Angeles County - Arboretum,301 N Baldwin Ave,Located in parking lot directly across from Harvard Dr,Arcadia,CA,91007,,323-267-2023,E,,Public,24 hours daily,,,,,,2,,,Non-Networked,,200-8,34.142727,-118.051275,2019-12-12,21450,2020-01-21 18:34:38 UTC,P,,,2014-06-01,,,,,J1772,US,,,,Public,,public,,,MUNI_GOV,,,,,,,Free,,,,,,,,,
ELEC,City of Glendora - City Hall,114 S Vista Bonita Ave,Located across the street from City Hall,Glendora,CA,91741,,626-914-8200,E,,Public,24 hours daily,,,,,,3,,,Non-Networked,,GPS,34.13556,-117.864,2019-12-12,21498,2020-01-21 18:34:38 UTC,LG,,,2002-04-30,,,,,J1772,US,,,,Public,,public,,,MUNI_GOV,,,,,,,Free,,,,,,,,,
ELEC,DoubleTree Hotel - Los Angeles - Westside,6161 Centinela Ave,,Culver City,CA,90230,,310-649-1776,E,,Public,24 hours daily; guest use only,,,,,,2,,,Non-Networked,,GPS,33.9826,-118.3966,2020-02-06,21524,2020-02-06 21:24:11 UTC,P,,,2019-12-31,,,,,J1772,US,,,,Public,,public,,,HOTEL,,,,,,,Free,,,,,,,,,
ELEC,Helms Bakery Building,8800 Venice Blvd,,Los Angeles,CA,90034,,310-204-1865,E,,Public,24 hours daily,,,,,,6,,,Non-Networked,,200-9,34.029971,-118.385231,2019-03-07,21525,2020-01-21 18:34:38 UTC,P,,,2017-04-25,,,,,J1772,US,,,,Public,,public,,,PARKING_GARAGE,,,,,,,$1 per hour for first two hours; $3 per hour thereafter,,,,,,,,,
ELEC,Westfield MainPlace Mall,2800 N Main St,"Located in parking structure 5, near the food court, and near the 24 Hour Fitness",Santa Ana,CA,92705,,714-547-7800,E,,Public,6am-12am daily,,,,,,6,,,Non-Networked,,GPS,33.777054,-117.870566,2020-02-06,21535,2020-02-06 21:24:11 UTC,P,,,2002-05-30,,,,,J1772,US,,,,Public,,public,,,SHOPPING_MALL,,,,,,,Free,,,,,,,,,
ELEC,CITY OF SB EV2,1115 Anacapa St,"STATION 3
STATION 4",Santa Barbara,CA,93101,,888-758-4389,E,,Public,24 hours daily,,,,,2,2,,,ChargePoint Network,http://www.chargepoint.com/,200-8,34.423495,-119.70228,2020-02-14,21557,2020-02-14 10:15:20 UTC,,,,,,,,,J1772 NEMA520,US,,,,Public,,public,,,,,,,,,,Pricing is based on time of day. $0.35 per kWh from 4:00 PM to 9:00 PM,,,,,,,,,
ELEC,California State University - Channel Islands,1 University Dr,Located in lot A3,Camarillo,CA,93012,,805-437-8400,E,,Public,24 hours daily,,,,,,5,,,Non-Networked,,200-8,34.165493,-119.04505,2019-11-08,21559,2020-01-21 18:34:38 UTC,P,,,2002-05-30,,,,,J1772,US,,,,Public,,public,,,COLLEGE_CAMPUS,,,,,,,Free,,,,,,,,,
ELEC,Brea Downtown Parking,101 S Brea Blvd,,Brea,CA,92821,,714-990-7650,E,,Public,Garage business hours; 4 hour parking limit,,,,,,4,,1 SP Inductive,Non-Networked,,200-8,33.919899,-117.898618,2019-09-09,21561,2020-01-21 18:34:38 UTC,LG,,,2002-05-30,,,,,J1772,US,,,,Public,,public,,,PARKING_GARAGE,,,,,,,Free,,,,,,,,,
ELEC,Home Depot,2745 Teller Rd,In front of garden center,Newbury Park,CA,91320,,805-375-6680,E,,Public,24 hours daily,,,,,4,2,,,Non-Networked,,200-8,34.18997,-118.934393,2019-05-09,21565,2020-01-21 18:34:38 UTC,P,,,2002-05-15,,,,,J1772 NEMA515,US,,,,Public,,public,,,SHOPPING_CENTER,,,,,,,Free,,,,,,,,,
ELEC,Lake Casitas Municipal Water District - Recreational Area,Casitas Pass Rd & Baldwin Rd,Baldwin Road/Casitas Pass Road,Oak View,CA,93022,,805-649-2233,E,,Public - Call ahead,8am-5pm daily,,,,,,1,,,Non-Networked,,GPS,34.418322,-119.3368,2019-02-06,21566,2020-01-21 18:34:38 UTC,P,,,2002-05-30,,,,,J1772,US,,,,Public - Appeler à l'avance,,public,CALL,,PARK,,,,,,,Free,,,,,,,,,
ELEC,San Dimas Park & Ride,205 S San Dimas Ave,Bonita Ave and San Dimas Ave,San Dimas,CA,91773,,909-394-6271,E,,Public,24 hours daily,,,,,,2,,,Non-Networked,,200-9,34.105203,-117.807471,2019-11-08,21569,2020-01-21 18:34:38 UTC,P,,,2002-05-30,,,,,J1772,US,,,,Public,,public,,,PARKING_LOT,,,,,,,Free,,,,,,,,,
ELEC,City of Pasadena - El Molino Lot,100 N El Molino Ave,,Pasadena,CA,91101,,626-744-7665,E,,Public,24 hours daily; pay lot,,,,,,2,,,Non-Networked,,200-8,34.147697,-118.136897,2019-05-09,21594,2020-01-21 18:34:38 UTC,LG,,,2002-05-30,,,,,J1772,US,,,,Public,,public,,,PARKING_LOT,,,,,,,Free,,,,,,,,,
ELEC,Ventura County Government Center,800 S Victoria Ave,,Ventura,CA,93009,,888-758-4389,E,,Public,8am-5pm daily,,,,,,4,,,Non-Networked,,GPS,34.267352,-119.2124,2019-11-08,21606,2020-01-21 18:34:38 UTC,LG,,,2012-10-19,,,,,J1772,US,,,,Public,,public,,,MUNI_GOV,,,,,,,Free,,,,,,,,,
ELEC,Ventura County Air Pollution Control District,669 County Square Dr,,Ventura,CA,93003,,805-645-1400,E,,Public,8am-5pm daily,,,,,,3,,,Non-Networked,,GPS,34.268756,-119.2154,2019-11-08,21607,2020-01-21 18:34:38 UTC,LG,,,2012-10-18,,,,,J1772,US,,,,Public,,public,,,MUNI_GOV,,,,,,,Free,,,,,,,,,
ELEC,Pacific View Mall,3295 E Main St,,Ventura,CA,93003,,805-642-5530,E,,Public,24 hours daily,,,,,,2,,1 SP Inductive,Non-Networked,,GPS,34.268,-119.2492,2019-04-08,21608,2020-01-21 18:34:38 UTC,P,,,2002-05-30,,,,,J1772,US,,,,Public,,public,,,SHOPPING_MALL,,,,,,,,,,,,,,,,
ELEC,University of California - Davis Extension,1441 Research Park Dr,,Davis,CA,95616,,530-752-8277,E,,Public,24 hours daily,,,,,1,3,,,Non-Networked,,200-9,38.539118,-121.732015,2019-11-08,21673,2020-01-21 18:34:38 UTC,SG,,,2004-06-01,,,,,J1772 NEMA520,US,,,,Public,,public,,,COLLEGE_CAMPUS,,,,,,,$9 parking fee,,,,,,,,,
ELEC,San Luis Obispo County Air Pollution Control District,3433 Roberto Ct,,San Luis Obispo,CA,93401,,805-781-5912,E,,Public,8am-5pm M-F; see front desk for code,,,,,1,1,,,Non-Networked,,GPS,35.25939,-120.64492,2019-05-09,21713,2020-01-21 18:34:38 UTC,LG,,,2002-07-15,,,,,J1772 NEMA520,US,,,,Public,,public,,,MUNI_GOV,,,,,,,Free,,,,,,,,,
ELEC,Soquel & Front Garage,601 Front St,,Santa Cruz,CA,95061,,831-420-5184,E,,Public,24 hours daily,,,,,,5,,,Non-Networked,,200-9,36.973393,-122.024849,2019-08-08,21794,2020-01-21 18:34:38 UTC,P,,,1998-06-30,,,,,J1772,US,,,,Public,,public,,,PARKING_GARAGE,,,,,,,Free,,,,,,,,,
ELEC,Fair Oaks - Orangevale - Community Library,11601 Fair Oaks Blvd,,Fair Oaks,CA,95628,,916-264-2700,E,,Public,24 hours daily,,,,,,2,,,Non-Networked,,GPS,38.66292,-121.2634,2019-09-09,25491,2020-01-21 18:34:38 UTC,LG,,,2004-06-01,,,,,J1772,US,,,,Public,,public,,,PARKING_LOT,,,,,,,Free,,,,,,,,,
ELEC,City of Sacramento - City Hall Public Parking Garage,10th St & I St,"Lot I, Levels 2 and 8, Waterfall Building.",Sacramento,CA,95814,,916-264-5011,E,,Public,24 hours daily; pay lot,,,,,4,21,,2 SP Inductive,Non-Networked,,GPS,38.58098,-121.493,2020-01-13,25493,2020-01-21 18:34:38 UTC,LG,,,2004-05-30,,,,,J1772 NEMA1450,US,,,,Public,,public,,,MUNI_GOV,,,,,,,,,,,,,,,,
ELEC,Sutter Galleria Mall - University of California - Davis Extension,2901 K St,Located on the 2nd floor,Sacramento,CA,95816,,916-327-7072,E,,Public,24 hours daily; pay lot; visitor and student use only,,,,,1,2,,,Non-Networked,,200-9,38.57277,-121.467902,2019-05-09,25494,2020-01-21 18:34:38 UTC,P,,,2004-05-30,,,,,J1772 NEMA520,US,,,,Public,,public,,,COLLEGE_CAMPUS,,,,,,,Free,,,,,,,,,
ELEC,North Highlands Library,4235 Antelope Rd,,Antelope,CA,95843,,916-264-2920,E,,Public,24 hours daily,,,,,,1,,,Non-Networked,,GPS,38.7042,-121.365,2019-09-09,25497,2020-01-21 18:34:38 UTC,LG,,,2019-08-01,,,,,J1772,US,,,,Public,,public,,,LIBRARY,,,,,,,Free,,,,,,,,,
ELEC,University of California - Davis - Medical Center,4860 Y St,"Located in Parking Structure 2, at 49th St",Sacramento,CA,95817,,800-282-3284,E,,Public,24 hours daily,,,,,,2,,,Non-Networked,,GPS,38.552483,-121.4487,2015-01-06,25501,2020-01-21 18:34:38 UTC,P,,,2019-11-01,,,,,J1772,US,,,,Public,,public,,,HOSPITAL,,,,,,,,,,,,,,,,
ELEC,Belle Cooledge Library,5600 S Land Park Dr,,Sacramento,CA,95822,,916-264-2700,E,,Public,24 hours daily,,,,,,2,,,Non-Networked,,GPS,38.524403,-121.5112,2019-09-09,25502,2020-01-21 18:34:38 UTC,LG,,,2004-05-30,,,,,J1772,US,,,,Public,,public,,,LIBRARY,,,,,,,Free,,,,,,,,,
ELEC,Mosquito Road Park and Ride,Mosquito Rd & Clay St,,Placerville,CA,95667,,530-642-5383,E,,Public,Lot business hours; overnight parking prohibited,,,,,,2,,,Non-Networked,,GPS,38.73323,-120.78962,2019-11-08,25507,2020-01-21 18:34:38 UTC,LG,,,2004-05-30,,,,,J1772,US,,,,Public,,public,,,MUNI_GOV,,,,,,,Free,,,,,,,,,
ELEC,City of Vacaville - Cultural Center,1000 Ulatis Dr,,Vacaville,CA,95687,,707-449-5424,E,,Public,24 hours daily,,,,,,1,,1 SP Inductive,Non-Networked,,GPS,38.356027,-121.9628,2019-06-06,25511,2020-01-21 18:34:38 UTC,LG,,,2004-06-15,,,,,J1772,US,,,,Public,,public,,,MUNI_GOV,,,,,,,Free,,,,,,,,,
ELEC,Stars Recreation Center,155 Browns Valley Pkwy,,Vacaville,CA,95688,,707-449-5424,E,,Public,24 hours daily,,,,,,3,,1 SP Inductive,Non-Networked,,GPS,38.36557,-121.967,2019-06-06,25514,2020-01-21 18:34:38 UTC,LG,,,2004-06-15,,,,,J1772,US,,,,Public,,public,,,REC_SPORTS_FACILITY,,,,,,,Free,,,,,,,,,
ELEC,City of Vacaville - Regional Transport Center,190 Hickory Ln,,Vacaville,CA,95688,,707-449-5424,E,,Public,24 hours daily,,,,,,3,,1 SP Inductive,Non-Networked,,GPS,38.35172,-121.987,2019-06-06,25515,2020-01-21 18:34:38 UTC,LG,,,2004-06-15,,,,,J1772 TESLA,US,,,,Public,,public,,,TRAVEL_CENTER,,,,,,,Free,,,,,,,,,
ELEC,Office of Housing & Redevelopment,40 Eldridge Ave,At Morales Ct,Vacaville,CA,95688,,707-449-5424,E,,Public,24 hours daily,,,,,,1,,1 SP Inductive,Non-Networked,,200-9,38.356907,-122.001886,2019-06-06,25516,2020-01-21 18:34:38 UTC,LG,,,2004-06-15,,,,,J1772,US,,,,Public,,public,,,OFFICE_BLDG,,,,,,,Free,,,,,,,,,
ELEC,KUIC Radio - Parking Lot,500 Catherine St,At Davis St,Vacaville,CA,95688,,707-449-5424,E,,Public,24 hours daily,,,,,,1,,1 SP Inductive,Non-Networked,,GPS,38.355867,-121.9862,2019-06-06,25517,2020-01-21 18:34:38 UTC,LG,,,2004-06-15,,,,,J1772,US,,,,Public,,public,,,PARKING_LOT,,,,,,,Free,,,,,,,,,
ELEC,Citrus Heights City Hall,6360 Fountain Square Dr,,Citrus Heights,CA,95621,,916-725-2448,E,,Public,24 hours daily,,,,,,2,,1 SP Inductive,Non-Networked,,GPS,38.682605,-121.297614,2019-09-09,25519,2020-02-18 23:19:14 UTC,LG,,,2016-02-01,,,,,J1772,US,,,,Public,,public,,,MUNI_GOV,,,,,,,Free,,,,,,,,,
ELEC,El Dorado County Government Center,2850 Fairlane Ct,Building C parking lot,Placerville,CA,95667,,530-621-5300,E,,Public,24 hours daily,,,,,,3,,,Non-Networked,,GPS,38.72799,-120.828,2019-09-09,25522,2020-01-21 18:34:38 UTC,LG,,,2004-05-15,,,,,J1772,US,,,,Public,,public,,,MUNI_GOV,,,,,,,Free,,,,,,,,,
ELEC,El Dorado Transit Park & Ride,4640 Post St,,El Dorado Hills,CA,95762,,530-642-5383,E,,Public,24 hours daily,,,,,,2,,,Non-Networked,,GPS,38.6476,-121.067,2019-09-09,25523,2020-01-21 18:34:38 UTC,LG,,,2012-05-01,,,,,J1772,US,,,,Public,,public,,,MUNI_GOV,,,,,,,Free,,,,,,,,,
ELEC,CVS Pharmacy,8455 Auburn-Folsom Rd,At Douglas Blvd,Granite Bay,CA,95746,,916-791-1189,E,,Public,8am-10pm,,,,,,1,,,Non-Networked,,GPS,38.74453,-121.17,2019-02-06,25527,2020-01-21 18:34:38 UTC,P,,,1998-06-15,,,,,J1772,US,,,,Public,,public,,,CONVENIENCE_STORE,,,,,,,Free,,,,,,,,,
ELEC,Carmichael Library,5605 Marconi Ave,At La Vista,Carmichael,CA,95608,,916-264-2700  916-264-2920,E,,Public,24 hours daily,,,,,,1,,1 SP Inductive,Non-Networked,,GPS,38.618066,-121.334337,2019-09-09,25610,2020-02-18 23:20:01 UTC,P,,,2004-07-15,,,,,J1772,US,,,,Public,,public,,,LIBRARY,,,,,,,Free,,,,,,,,,
ELEC,Rio Vista City Hall,1 Main St,,Rio Vista,CA,94571,,707-374-6451,E,,Public,24 hours daily,,,,,,1,,,Non-Networked,,GPS,38.15485,-121.69,2019-05-09,27302,2020-01-21 18:34:38 UTC,LG,,,2006-08-15,,,,,J1772,US,,,,Public,,public,,,MUNI_GOV,,,,,,,Free,,,,,,,,,
ELEC,Fairfield City Hall,1000 Webster St,,Fairfield,CA,94533,,707-428-7414,E,,Public,24 hours daily,,,,,,2,,,Non-Networked,,200-8,38.25281,-122.044229,2019-11-08,27328,2020-01-21 18:34:38 UTC,LG,,,2012-08-27,,,,,J1772,US,,,,Public,,public,,,MUNI_GOV,,,,,,,Free,,,,,,,,,
ELEC,Solano Community College,4000 Suisun Valley Rd,,Fairfield,CA,94534,,707-449-5424,E,,Public,24 hours daily,,,,,,3,,1 SP Inductive,Non-Networked,,GPS,38.23723,-122.123,2019-06-06,27329,2020-01-21 18:34:38 UTC,LG,,,2005-07-15,,,,,J1772,US,,,,Public,,public,,,COLLEGE_CAMPUS,,,,,,,Free,,,,,,,,,
ELEC,Los Angeles International Airport (LAX) - Lot 1,1 World Way,Central Terminal Area (CTA) - P1,Los Angeles,CA,90045,,310-646-2911,E,,Public,24 hours daily; pay lot,,,,,,20,,,Non-Networked,,GPS,33.944761,-118.399767,2019-09-09,28007,2020-01-21 18:34:38 UTC,LG,,,2011-02-15,,,,,J1772,US,,,,Public,,public,,,AIRPORT,,,,,,,Free,,,,,,,,,
ELEC,SAN JOSE,44 S 4th St,"4TH SAN FER 1; Garage level 2
4TH SAN FER 2; Garage level 2
4TH SAN FER 3; Garage level 2
4TH SAN FER 4; Garage Level 2
4TH SAN FER 5; Garage level 2
4TH SAN FER 6; Garage level 2",San Jose,CA,95112,,888-758-4389,E,,Public,24 hours daily,,,,,,12,,,ChargePoint Network,http://www.chargepoint.com/,200-9,37.33695,-121.886159,2020-02-14,28844,2020-02-14 10:15:20 UTC,,,,,,,,,J1772,US,,,,Public,,public,,,,,,,,,,"Pricing is based on time of day. $0.2 per kWh, $1.25 per session from 9:30 PM to 8:30 AM",,,,,,,,,
ELEC,City of Ukiah - Public Parking Lot,N Oak St & W Standley St,Located in the City parking lot on the west side of N. Oak St. just south of W. Standley St.,Ukiah,CA,95482,,707-467-5711,E,,Public,24 hours daily,,,,,,1,,1 SP Inductive,Non-Networked,,GPS,39.15,-123.2091,2019-05-09,33544,2020-01-21 18:34:38 UTC,LG,,,2008-11-30,,,,,J1772,US,,,,Public,,public,,,PARKING_LOT,,,,,,,Free,,,,,,,,,
ELEC,Nut Tree Village,1651 E Monte Vista Ave,,Vacaville,CA,95688,,707-449-5424,E,,Public,24 hours daily,,,,,1,1,,1 SP Inductive,Non-Networked,,200-9,38.368755,-121.961192,2019-06-06,33545,2020-01-21 18:34:38 UTC,P,,,2008-12-15,,,,,J1772 NEMA515,US,,,,Public,,public,,,SHOPPING_CENTER,,,,,,,Free,,,,,,,,,
ELEC,Placer County Community Development Resource Center,3091 County Center Dr,Located on the west side of the building,Auburn,CA,95603,,530-745-3197,E,,Public,24 hours daily,,,,,,3,,,Non-Networked,,GPS,38.9412492,-121.1054805,2019-02-06,33550,2020-01-21 18:34:38 UTC,LG,,,2008-11-30,,,,,J1772,US,,,,Public,,public,,,MUNI_GOV,,,,,,,Free,,,,,,,,,
ELEC,4th and G Plaza Public Parking Garage,4th St & G St,Entrance on 4th St,Davis,CA,95616,,530-753-7730,E,,Public,24 hours daily,,,,,,1,,,Non-Networked,,GPS,38.54643,-121.7388,2019-09-09,33555,2020-01-21 18:34:38 UTC,P,,,2008-12-01,,,,,J1772,US,,,,Public,,public,,,PARKING_GARAGE,,,,,,,Free,,,,,,,,,
ELEC,Davis Amtrak Station,840 2nd St,2nd & H St,Davis,CA,95616,,,E,,Public,24 hours daily,,,,,,2,,1 SP Inductive,Non-Networked,,GPS,38.5443,-121.738,2019-11-08,33556,2020-01-21 18:34:38 UTC,P,,,2008-12-01,,,,,J1772,US,,,,Public,,public,,,PAY_LOT,,,,,,,Free,,,,,,,,,
ELEC,University of California - Davis,6 Howard Way,Quad Structure; Between Russell Blvd & North Quad,Davis,CA,95616,,530-752-8277,E,,Public,24 hours daily; pay lot; permit required 7am-10pm M-F,,,,,2,4,,,Non-Networked,,200-8,38.543997,-121.75014,2019-11-08,33557,2020-01-21 18:34:38 UTC,P,,,2008-12-01,,,,,J1772 NEMA520,US,,,,Public,,public,,,COLLEGE_CAMPUS,,,,,,,$9 parking fee,,,,,,,,,
ELEC,University Covenant Church,315 Mace Blvd,,Davis,CA,95618,,530-756-3923,E,,Public,24 hours daily,,,,,,1,,,Non-Networked,,GPS,38.55755,-121.6947,2019-09-09,33558,2020-01-21 18:34:38 UTC,P,,,2008-12-01,,,,,J1772,US,,,,Public,,public,,,PLACE_OF_WORSHIP,,,,,,,Free,,,,,,,,,
ELEC,Wildhorse Golf Club,2323 Rockwell Dr,,Davis,CA,95618,,530-753-4900,E,,Public,24 hours daily; customer use only,,,,,,2,,,Non-Networked,,200-9,38.569412,-121.721373,2019-02-06,33559,2020-01-21 18:34:38 UTC,P,,,1998-06-15,,,,,J1772,US,,,,Public,,public,,,REC_SPORTS_FACILITY,,,,,,,Free,,,,,,,,,
ELEC,Lakewood Center Mall,4500 Silva St,Located near Nordstrom Rack,Lakewood,CA,90712,,562-531-6707,E,,Public,Mall business hours,,,,,,2,,,Non-Networked,,GPS,33.84788,-118.13889,2019-12-12,33564,2020-01-21 18:34:38 UTC,P,,,2012-10-25,,,,,J1772,US,,,,Public,,public,,,SHOPPING_MALL,,,,,,,Free,,,,,,,,,
ELEC,Golden Gate Ferry Terminal,101 E Sir Francis Drake Blvd,,Larkspur,CA,94939,,415-925-5570,E,,Public,24 hours daily; pay lot,,,,,,1,,1 SP Inductive,Non-Networked,,GPS,37.94495,-122.5096,2019-05-09,33690,2020-01-21 18:34:38 UTC,P,,,2008-12-31,,,,,J1772,US,,,,Public,,public,,,PARKING_LOT,,,,,,,$2 parking fee,,,,,,,,,
ELEC,Oakland International Airport - Daily Lot,1 Airport Dr,"Enter Daily Parking Lot.  Section L6, behind Parking Management Office.",Oakland,CA,94621,,510-563-3361,E,,Public,24 hours daily; pay lot,,,,,,2,,,Non-Networked,,GPS,37.7136,-122.2087,2019-11-08,33695,2020-01-21 18:34:38 UTC,LG,,,2012-12-20,,,,,J1772,US,,,,Public,,public,,,AIRPORT,,,,,,,Free,,,,,,,,,
ELEC,CCSF SFMTA,733 Kearny St,"PORTSMOUTH SQ 1; Located in garage
PORTSMOUTH SQ 2; Located in garage",San Francisco,CA,94108,,888-758-4389,E,,Public,24 hours daily,,,,,,2,,,ChargePoint Network,http://www.chargepoint.com/,200-9,37.794835,-122.405351,2020-02-14,33700,2020-02-14 10:15:20 UTC,,,,,,,,,J1772,US,,,,Public,,public,,,,,,,,,,"$0.24 per kWh, maximum payment of $5, $2 per session",,,,,,,,,
ELEC,SAN JOSE,200 E Santa Clara St,"CITY HALL 1N; North wall basement 
CITY HALL 1W; Basement
CITY HALL 2S; Basement
CITY HALL 2W; City Hall basement garage
CITY HALL 3S; City Hall basement garage
CITY HALL 3W; Basement
CITY HALL 4S; City Hall basement garage
CITY HALL 4W; Basement 
CITY HALL 5W; Basement
CITY HALL 6W; Basement ",San Jose,CA,95113,,888-758-4389,E,,Public,24 hours daily,,,,,,20,,,ChargePoint Network,http://www.chargepoint.com/,200-9,37.337671,-121.885957,2020-02-14,33718,2020-02-14 10:15:20 UTC,,,,,,,,,J1772,US,,,,Public,,public,,,,,,,,,,"Pricing is based on time of day. $0.2 per kWh, $1.25 per session from 9:30 PM to 8:30 AM",,,,,,,,,
ELEC,PUBLIC STATIONS,1075 E 20th St,SOLAR PARKING; Solar Parking Lot,Chico,CA,95928,,888-758-4389,E,,Public,24 hours daily,,,,,,2,,,ChargePoint Network,http://www.chargepoint.com/,GPS,39.7241682,-121.8153986,2020-02-14,35143,2020-02-14 10:15:20 UTC,,,,,,,,,J1772,US,,,,Public,,public,,,,,,,,,,Free,,,,,,,,,
ELEC,Fairfield Transportation Center,2000 Cadenasso Dr,,Fairfield,CA,94533,,707-449-5424,E,,Public,24 hours daily,,,,,,2,,2 Tesla Conductive,Non-Networked,,200-9,38.248498,-122.068437,2019-11-08,35146,2020-01-21 18:34:38 UTC,LG,,,2009-05-01,,,,,J1772,US,,,,Public,,public,,,TRAVEL_CENTER,,,,,,,Free,,,,,,,,,
ELEC,Rabobank - Salinas,1285 N Davis Rd,,Salinas,CA,93907,,831-784-7700,E,,Public,24 hours daily,,,,,,1,,,Non-Networked,,GPS,36.70104,-121.6673,2019-11-08,35470,2020-01-21 18:34:38 UTC,P,,,2009-12-15,,,,,J1772,US,,,,Public,,public,,,BANK,,,,,,,Free,,,,,,,,,
ELEC,Home Depot,1551 Froom Ranch Way,,San Luis Obispo,CA,93405,,805-596-0857,E,,Public,24 hours daily,,,,,,2,,,Non-Networked,,200-9,35.249929,-120.689683,2019-11-08,35560,2020-01-21 18:34:38 UTC,P,,,2000-04-15,,,,,J1772,US,,,,Public,,public,,,SHOPPING_CENTER,,,,,,,Free,,,,,,,,,
ELEC,San Luis Obispo Promenade - Bed Bath & Beyond,319 Madonna Rd,,San Luis Obispo,CA,93401,,805-545-7556  805-542-9004,E,,Public,24 hours daily,,,,,,4,,,Non-Networked,,GPS,35.25982,-120.676,2019-11-08,35561,2020-01-21 18:34:38 UTC,P,,,2000-04-15,,,,,J1772,US,,,,Public,,public,,,SHOPPING_CENTER,,,,,,,Free,,,,,,,,,
ELEC,SOUTHCOASTPLAZA,3333 Bear St,"SCP WEST 04
SCP WEST 05; Stations are on the Lower Level near the Crate and Barrel entrance.
SCP WEST 06; Stations are on the Lower Level of the parking garage near the Crate and Barrel entrance.
SCP WEST 07; Stations are on the Lower Level in the parking garage by the Crate and Barrel entrance.
SCP WEST 08
SCP WEST 09
WEST DCFC 01
WEST DCFC 02; -
WEST DCFC 03; -",Costa Mesa,CA,92626,,888-758-4389,E,,Public,24 hours daily,,,,,,10,6,,ChargePoint Network,http://www.chargepoint.com/,200-9,33.691584,-117.892763,2020-02-14,36345,2020-02-14 10:15:20 UTC,,,,,,,,,CHADEMO J1772 J1772COMBO,US,,,,Public,,public,,,,,,,,,,Pricing is based on time of day. $5 per hour from 10:00 PM to 9:00 AM,,,,,,,,,
ELEC,MARTINEZ CA,680 Court St,MAIN & COURT ST,Martinez,CA,94553,,888-758-4389,E,,Public,24 hours daily,,,,,1,1,,,ChargePoint Network,http://www.chargepoint.com/,GPS,38.0184746,-122.1345444,2020-02-14,36347,2020-02-14 10:15:20 UTC,,,,,,,,,J1772 NEMA520,US,,,,Public,,public,,,,,,,,,,Pricing is based on an hourly rate. $1 per hour,,,,,,,,,
ELEC,Rabobank - Goleta,5956 Calle Real,,Goleta,CA,93117,,805-967-0451,E,,Public,24 hours daily,,,,,,1,,,Non-Networked,,200-9,34.44198,-119.829553,2019-02-06,36610,2020-01-21 18:34:38 UTC,P,,,2010-07-15,,,,,TESLA,US,,,,Public,,public,,,BANK,,,,,,,Free,,,,,,,,,SOLAR
ELEC,ClipperCreek Headquarters,11850 Kemper Rd,Kemper Rd and Highway 49,Auburn,CA,95603,,530-887-1674,E,,Public,24 hours daily,,,,,,12,,,Non-Networked,,200-9,38.930776,-121.092282,2019-09-09,38314,2020-01-21 18:34:38 UTC,P,,,2011-03-15,,,,,J1772,US,,,,Public,,public,,,OFFICE_BLDG,,,,,,,Free,,,,,,,,,
ELEC,Toyota of Santa Monica,801 Santa Monica Blvd,At Lincoln Ct,Santa Monica,CA,90401,,310-394-6744,E,,Public - Call ahead,Dealership business hours; priority for customer use,,,,,,3,,,Non-Networked,,200-9,34.019875,-118.49151,2019-05-09,38379,2020-01-21 18:34:38 UTC,P,,,2010-11-15,,,,,J1772,US,,,,Public - Appeler à l'avance,,public,CALL,,CAR_DEALER,,,,,,,,,,,,,,,,
ELEC,City of Santa Monica - Civic Auditorium Solar Port,1855 Main St,,Santa Monica,CA,90401,,310-458-8516,E,,Public,24 hours daily; pay lot,,,,,,7,,1 SP Inductive,Non-Networked,,200-9,34.009426,-118.489122,2019-04-08,38515,2020-01-21 18:34:38 UTC,LG,,,2010-11-15,,,,,J1772,US,,,,Public,,public,,,MUNI_GOV,,,,,,,Free,,,,,,,,,SOLAR
ELEC,Parc 55 Hotel,55 Cyril Magnin,,San Francisco,CA,94102,,415-392-8000,E,,Public,24 hours daily; pay lot,,,,,,1,,,Non-Networked,,200-9,37.784871,-122.408991,2019-09-09,38517,2020-01-21 18:34:38 UTC,P,,,2011-02-01,,,,,J1772,US,,,,Public,,public,,,HOTEL,,,,,,,,,,,,,,,,
ELEC,Beach & Hyde Garage,655 Beach St,,San Francisco,CA,94109,,415-673-1735,E,,Public,24 hours daily; pay lot,,,,,,5,,,Non-Networked,,200-8,37.806798,-122.419488,2019-05-09,38518,2020-01-21 18:34:38 UTC,P,,,2011-02-01,,,,,J1772,US,,,,Public,,public,,,PAY_GARAGE,,,,,,,Free,,,,,,,,,
ELEC,City of Santa Monica - Civic Parking Garage,333 Civic Center Dr,1st floor of parking garage,Santa Monica,CA,90401,,310-458-8516,E,,Public,24 hours daily; pay lot,,,,,,14,1,,Non-Networked,,GPS,34.010528,-118.4898,2019-04-08,38521,2020-01-21 18:34:38 UTC,LG,,,2010-11-15,,,,,CHADEMO J1772,US,,,,Public,,public,,,MUNI_GOV,,,,,,,Free,,,,,,,,,SOLAR
ELEC,PARK TOWER,3401-3447 Park Center Dr,"L1 EAST 01; Pay to park: enter Park Center Dr, go left, stns to left 
L1 EAST 02; Pay to park: Enter Park Center Dr, go left, stns on left",Costa Mesa,CA,92626,,888-758-4389,E,,Public,24 hours daily,,,,,1,2,,,ChargePoint Network,http://www.chargepoint.com/,200-8,33.692541,-117.883687,2020-02-14,38902,2020-02-14 10:15:20 UTC,,,,,,,,,J1772 NEMA520,US,,,,Public,,public,,,,,,,,,,"Pricing is based on length of time. $1.5 per hour for the first 4 hours, and $5 per additional hour, minimum payment of $1",,,,,,,,,
ELEC,PLAZA TOWER,600 Anton Blvd,"L1 SOUTH 01; Pay to park: Enter Park Center Dr, go strt, go right
L1 SOUTH 02; Pay to park: Enter Park Center Dr, go strt to end, go right
L1 SOUTH 03; Pay to Park: Enter Park Center Dr., go straight to end, go right.
L1 SOUTH 04; Pay to Park: Enter Park Center Dr, go strt to end, go right.",Costa Mesa,CA,92626,,888-758-4389,E,,Public,24 hours daily,,,,,1,6,,,ChargePoint Network,http://www.chargepoint.com/,200-9,33.690208,-117.881973,2020-02-14,38904,2020-02-14 10:15:20 UTC,,,,,,,,,J1772 NEMA520,US,,,,Public,,public,,,,,,,,,,"Pricing is based on length of time. $1.5 per hour for the first 4 hours, and $5 per additional hour, minimum payment of $1",,,,,,,,,
ELEC,CAISO,250 Outcropping Way,"EVCS-10; No Public Access. For Employee Use Only.
EVCS-11; No Public Access. For Employee Use Only.
EVCS-12; No Public Access. For Employee Use Only.
EVCS-13; No Public Access. For Employee Use Only.
EVCS-14; No Public Access. For Employee Use Only.
EVCS-15; No Public Access. For Employee Use Only.
EVCS-16; No Public Access. For Employee Use Only.
EVCS-17; No Public Access. For Employee Use Only.
EVCS-18; No General Public Access - Must be a Registered Visitor
EVCS-1; Front parking lot 
EVCS-3; Front parking lot 
EVCS-4; Front parking lot 
EVCS-5; Front parking lot 
EVCS-6; No General Public Access - Must be a registered visitor
EVCS-7; No General Public Access - Must be a Registered Visitor
EVCS-8; No Public Access. For Employee Use Only.
EVCS-9; No Public Access. For Employee Use Only.",Folsom,CA,95630,,888-758-4389,E,,Public,24 hours daily,,,,,,33,,,ChargePoint Network,http://www.chargepoint.com/,200-9,38.643672,-121.148439,2020-02-14,38905,2020-02-14 10:15:20 UTC,,,,,,,,,J1772,US,,,,Public,,public,,,,,,,,,,Pricing is based on kWh used. $0.1 per kWh,,,,,,,,,
ELEC,CAL STATE LA,5151 State University Drive,"DCFC1; Physical Science- Level B
DCFC2; Physical Science- Level B
DCFC3; Physical Science- Level B
DCFC4; Level 1A
DCFC5; Level 1A
DCFC6; Level 1A
LOT 06 ST 01; Enter Lot 6 from Circle Dr.,stations are by the strage area IT116.
LOT 10 E T 01; In front of Tech Ed Lab B-11
LOT 10 E T 02; Stations are in front of Tech Ed Lab B11.
LOT 10 E T 03; Enter Lot 10 from Circle Dr., stations are on the right.
LOT 3 ST 01; Station is at Lot 3, an outdoor lot.
LOT 3 ST 03; Station is at Lot 3, an outdoor lot.
STRUCTURE A 01; Station is on Lower Level.
STRUCTURE B 01; Station is in Structure B, ground level..
STRUCTURE C 01; Station is at Level 1F, on the South side of the garage.",Los Angeles,CA,90032,,888-758-4389,E,,Public,24 hours daily,,,,,,15,12,,ChargePoint Network,http://www.chargepoint.com/,200-8,34.062498,-118.171663,2020-02-14,38910,2020-02-14 10:15:20 UTC,,,,,,,,,CHADEMO J1772 J1772COMBO,US,,,,Public,,public,,,,,,,,,,Free,,,,,,,,,
ELEC,IRVINE COMPANY,1101 Newport Center Dr,FASHION ISL 01,Newport Beach,CA,92660,,888-758-4389,E,,Public,24 hours daily,,,,,,1,,,ChargePoint Network,http://www.chargepoint.com/,200-9,33.61477,-117.877205,2020-02-14,38918,2020-02-14 10:15:20 UTC,,,,,,,,,J1772,US,,,,Public,,public,,,,,,,,,,"Pricing is based on an hourly rate. $1 per hour, minimum payment of $1",,,,,,,,,
ELEC,OAK INT AIRPORT,1 Airport Dr,"PREMIER 1; Premier Parking Lot
PREMIER 2; Premier Parking Lot
PREMIER 3; Premier Parking Lot 
PREMIER 4; Premier Parking Lot
PREMIER 5; Premier Parking Lot
PREMIER 6; Premier Parking Lot
PREMIER 7; Premier Parking Lot
PREMIER ADA; Premier Parking Lot / ADA",Oakland,CA,94621,,888-758-4389,E,,Public,24 hours daily,,,,,8,8,,,ChargePoint Network,http://www.chargepoint.com/,200-9,37.712381,-122.21333,2020-02-14,38926,2020-02-14 10:15:20 UTC,,,,,,,,,J1772 NEMA520,US,,,,Public,,public,,,,,,,,,,Free,,,,,,,,,
ELEC,ADOBE SAN JOSE,321 Park Ave,"AT5 #3; 5th floor
AT5 #4
AT5 #5
AT5 #6
AT5 #7; -
ET1 1
ET4 # 2; -
ET4 #4; Adobe Employee Use Only!
ET4 #5; Adobe Employee Use Only!
ET4 #6; Adobe Employee Use Only!
ET4 #7; Adobe Employee Use Only!
ET4 1
ET4 3
ET4 8
ET5 #1; -
ET5 #2; -
ET5 #3; -
ET5 #4; -
ET5 #5; Adobe Employee Use Only!
ET5 #6; -",San Jose,CA,95113,,888-758-4389,E,,Public,24 hours daily,,,,,,39,,,ChargePoint Network,http://www.chargepoint.com/,200-9,37.331291,-121.893395,2020-02-14,38931,2020-02-14 10:15:20 UTC,,,,,,,,,J1772,US,,,,Public,,public,,,,,,,,,,"Pricing is based on length of time. $0 per hour for the first 4 hours, and $5 per additional hour",,,,,,,,,
ELEC,ECOLOGY ACTION,877 Cedar St,"CEDAR STREET 1; -
CEDAR STREET 2; -
CEDAR STREET 3; -",Santa Cruz,CA,95060,,888-758-4389,E,,Public,24 hours daily,,,,,,3,,,ChargePoint Network,http://www.chargepoint.com/,200-9,36.974164,-122.027788,2020-02-14,38934,2020-02-14 10:15:20 UTC,,,,,,,,,J1772,US,,,,Public,,public,,,,,,,,,,"Pricing is based on length of time and kWh used. $0 per hour, and $5 per additional hour, $2 per kWh, minimum payment of $2, maximum payment of $18",,,,,,,,,
ELEC,CITY OF REDWOOD,750 Marshall St,L3 MARSHALL ST; -,Redwood City,CA,94063,,888-758-4389,E,,Public,24 hours daily,,,,,,,1,,ChargePoint Network,http://www.chargepoint.com/,GPS,37.4875504,-122.2272435,2020-02-14,39232,2020-02-14 10:15:20 UTC,,,,,,,,,CHADEMO,US,,,,Public,,public,,,,,,,,,,$5 per hour,,,,,,,,,
ELEC,Super 8 - Ukiah,693 S Orchard Ave,"Highway 101, Gobbi St exit",Ukiah,CA,95482,,707-468-8181,E,,Public - Call ahead,24 hours daily; guests may request use of the chargers when making hotel reservations,A Cash D M V,,,,,1,,,Non-Networked,,GPS,39.1458,-123.198497,2019-09-09,39314,2020-01-21 18:34:38 UTC,P,,,2011-05-15,,,,,J1772,US,,,,Public - Appeler à l'avance,,public,CALL,,HOTEL,,,,,,,Free,,,,,,,,,
ELEC,Antioch Nissan,1831 Auto Center Dr,,Antioch,CA,94509,,925-755-2600,E,,Public - Call ahead,Dealership business hours,,,,,,1,,,Non-Networked,,200-9,38.007799,-121.832042,2019-08-08,39870,2020-01-21 18:34:38 UTC,P,,,2011-03-15,,,,,J1772,US,,,,Public - Appeler à l'avance,,public,CALL,,CAR_DEALER,,,,,,,Free,,,,,,,,,
ELEC,Nissan of Bakersfield,2800 Pacheco Rd,,Bakersfield,CA,93313,,661-835-8600,E,,Public - Call ahead,Dealership business hours,,,,,,1,1,,Non-Networked,,200-9,35.310723,-119.035324,2019-08-08,39871,2020-01-21 18:34:38 UTC,P,,,2011-03-15,,,,,CHADEMO J1772,US,,,,Public - Appeler à l'avance,,public,CALL,,CAR_DEALER,,,,,,,Free,,,,,,,,,
ELEC,Buena Park Nissan,6501 Auto Center Dr,,Buena Park,CA,90621,,714-739-0800,E,,Public - Call ahead,Dealership business hours,,,,,,3,,,Non-Networked,,200-9,33.865497,-117.995215,2019-08-08,39872,2020-01-21 18:34:38 UTC,P,,,2011-03-15,,,,,J1772,US,,,,Public - Appeler à l'avance,,public,CALL,,CAR_DEALER,,,,,,,Free,,,,,,,,,
ELEC,Carson Nissan,1505 E 223rd St,,Carson,CA,90745,,310-221-5119,E,,Public - Call ahead,Dealership business hours,,,,,,2,,,Non-Networked,,200-9,33.824968,-118.245675,2019-08-08,39873,2020-01-21 18:34:38 UTC,P,,,2011-03-15,,,,,J1772,US,,,,Public - Appeler à l'avance,,public,CALL,,CAR_DEALER,,,,,,,Free,,,,,,,,,
ELEC,Palm Springs Nissan,68177 Kyle Rd,,Cathedral City,CA,92234,,760-328-2828,E,,Public - Call ahead,Dealership business hours,,,,,,1,1,,Non-Networked,,GPS,33.78414,-116.471,2019-08-08,39874,2020-01-21 18:34:38 UTC,P,,,2011-03-15,,,,,CHADEMO J1772,US,,,,Public - Appeler à l'avance,,public,CALL,,CAR_DEALER,,,,,,,Free,,,,,,,,,
ELEC,Cerritos Nissan,18707 Studebaker Rd,,Cerritos,CA,90703,,562-402-2277,E,,Public - Call ahead,Dealership business hours,,,,,,1,,,Non-Networked,,200-9,33.861544,-118.100471,2019-08-08,39875,2020-01-21 18:34:38 UTC,P,,,2011-03-15,,,,,J1772,US,,,,Public - Appeler à l'avance,,public,CALL,,CAR_DEALER,,,,,,,Free,,,,,,,,,
ELEC,Chico Nissan,575 Manzanita Ave,,Chico,CA,95926,,530-891-1777,E,,Public - Call ahead,Dealership business hours,,,,,,3,,,Non-Networked,,200-9,39.756332,-121.843715,2019-08-08,39876,2020-01-21 18:34:38 UTC,P,,,2011-03-15,,,,,J1772,US,,,,Public - Appeler à l'avance,,public,CALL,,CAR_DEALER,,,,,,,Free,,,,,,,,,
ELEC,Puente Hills Nissan,17320 E Gale Ave,,City of Industry,CA,91748,,626-626-2600,E,,Public - Call ahead,Dealership business hours,,,,,,2,1,,Non-Networked,,200-9,33.997596,-117.927795,2019-08-08,39877,2020-01-21 18:34:38 UTC,P,,,2011-03-15,,,,,CHADEMO J1772,US,,,,Public - Appeler à l'avance,,public,CALL,,CAR_DEALER,,,,,,,Free,,,,,,,,,
ELEC,Lithia Nissan - Clovis,370 W Herndon Ave,,Clovis,CA,93612,,559-297-6919,E,,Public - Call ahead,Dealership business hours,,,,,,1,,,Non-Networked,,200-8,36.837511,-119.716988,2019-08-08,39878,2020-01-21 18:34:38 UTC,P,,,2011-03-15,,,,,J1772,US,,,,Public - Appeler à l'avance,,public,CALL,,CAR_DEALER,,,,,,,Free,,,,,,,,,
ELEC,Nissan of Serramonte,1500 Collins Ave,,Colma,CA,94014,,650-550-7200,E,,Public - Call ahead,Dealership business hours,,,,,,1,1,,Non-Networked,,200-8,37.671267,-122.463541,2019-08-08,39879,2020-01-21 18:34:38 UTC,P,,,2011-03-15,,,,,CHADEMO J1772,US,,,,Public - Appeler à l'avance,,public,CALL,,CAR_DEALER,,,,,,,Free,,,,,,,,,
ELEC,Autocom Nissan - Concord,1290 Concord Ave,,Concord,CA,94520,,925-676-4400,E,,Public - Call ahead,Dealership business hours,,,,,,1,,,Non-Networked,,200-8,37.980192,-122.050128,2019-08-08,39880,2020-01-21 18:34:38 UTC,P,,,2011-03-15,,,,,J1772,US,,,,Public - Appeler à l'avance,,public,CALL,,CAR_DEALER,,,,,,,Free,,,,,,,,,
ELEC,Larry H Miller Nissan,2575 Wardlow Rd,,Corona,CA,92882,,951-735-3360,E,,Public - Call ahead,Dealership business hours,,,,,,2,1,,Non-Networked,,200-9,33.88309,-117.615292,2019-08-08,39881,2020-01-21 18:34:38 UTC,P,,,2011-03-15,,,,,CHADEMO J1772,US,,,,Public - Appeler à l'avance,,public,CALL,,CAR_DEALER,,,,,,,Free,,,,,,,,,
ELEC,Orange Coast Nissan,2850 Harbor Blvd,,Costa Mesa,CA,92626,,714-681-1738,E,,Public - Call ahead,Dealership business hours,,,,,,2,,,Non-Networked,,200-9,33.675397,-117.918684,2019-08-08,39882,2020-01-21 18:34:38 UTC,P,,,2011-03-15,,,,,J1772,US,,,,Public - Appeler à l'avance,,public,CALL,,CAR_DEALER,,,,,,,Free,,,,,,,,,
ELEC,Hanlees Nissan,5009 Chiles Rd,,Davis,CA,95618,,530-231-3000,E,,Public - Call ahead,Dealership business hours,,,,,,1,1,,Non-Networked,,200-9,38.55252,-121.691555,2019-08-08,39883,2020-01-21 18:34:38 UTC,P,,,2011-03-15,,,,,CHADEMO J1772,US,,,,Public - Appeler à l'avance,,public,CALL,,CAR_DEALER,,,,,,,Free,,,,,,,,,
ELEC,Downey Nissan,7321 Firestone Blvd,,Downey,CA,90241,,562-334-1090,E,,Public - Call ahead,Dealership business hours,,,,,,4,,,Non-Networked,,200-8,33.9473,-118.151166,2019-09-09,39884,2020-01-21 18:34:38 UTC,P,,,2011-03-15,,,,,J1772,US,,,,Public - Appeler à l'avance,,public,CALL,,CAR_DEALER,,,,,,,Free,,,,,,,,,
ELEC,Nissan of Duarte,1434 Buena Vista St,,Duarte,CA,91010,,626-305-3000,E,,Public - Call ahead,Dealership business hours,,,,,,1,,,Non-Networked,,200-8,34.134833,-117.97749,2019-08-08,39885,2020-01-21 18:34:38 UTC,P,,,2011-03-15,,,,,J1772,US,,,,Public - Appeler à l'avance,,public,CALL,,CAR_DEALER,,,,,,,Free,,,,,,,,,
ELEC,Mossy Nissan - El Cajon,1170 W Main St,,El Cajon,CA,92020,,619-588-0500,E,,Public - Call ahead,Dealership business hours,,,,,,1,,,Non-Networked,,200-9,32.795896,-116.976156,2019-08-08,39886,2020-01-21 18:34:38 UTC,P,,,2011-03-15,,,,,J1772,US,,,,Public - Appeler à l'avance,,public,CALL,,CAR_DEALER,,,,,,,Free,,,,,,,,,
ELEC,Ross Nissan of El Monte,3428 N Peck Rd,,El Monte,CA,91731,,800-859-8445,E,,Public - Call ahead,Dealership business hours,,,,,,2,1,,Non-Networked,,200-9,34.069536,-118.026911,2019-09-09,39887,2020-01-21 18:34:38 UTC,P,,,2011-03-15,,,,,J1772,US,,,,Public - Appeler à l'avance,,public,CALL,,CAR_DEALER,,,,,,,Free,,,,,,,,,
ELEC,Nissan of Elk Grove,8590 Laguna Grove Dr,,Elk Grove,CA,95757,,916-405-5000,E,,Public - Call ahead,Dealership business hours,,,,,,4,1,,Non-Networked,,200-9,38.402217,-121.385527,2019-09-09,39888,2020-01-21 18:34:38 UTC,P,,,2011-03-15,,,,,CHADEMO J1772,US,,,,Public - Appeler à l'avance,,public,CALL,,CAR_DEALER,,,,,,,Free,,,,,,,,,
ELEC,Mossy Nissan - Escondido,1546 Auto Park Way,,Escondido,CA,92029,,760-746-5050,E,,Public - Call ahead,Dealership business hours,,,,,,1,,,Non-Networked,,200-9,33.116492,-117.106837,2019-08-08,39889,2020-01-21 18:34:38 UTC,P,,,2011-03-15,,,,,J1772,US,,,,Public - Appeler à l'avance,,public,CALL,,CAR_DEALER,,,,,,,Free,,,,,,,,,
ELEC,McCrea Nissan,601 7th St,,Eureka,CA,95501,,707-442-1741,E,,Public - Call ahead,Dealership business hours,,,,,,1,,,Non-Networked,,200-9,40.800562,-124.164405,2019-08-08,39890,2020-01-21 18:34:38 UTC,P,,,2011-03-15,,,,,J1772,US,,,,Public - Appeler à l'avance,,public,CALL,,CAR_DEALER,,,,,,,Free,,,,,,,,,
ELEC,Future Nissan of Folsom,12610 Auto Mall Cir,,Folsom,CA,95630,,916-608-5300,E,,Public - Call ahead,Dealership business hours,,,,,,3,1,,Non-Networked,,GPS,38.634132,-121.204871,2019-09-09,39891,2020-02-18 23:08:26 UTC,P,,,2011-03-15,,,,,CHADEMO J1772,US,,,,Public - Appeler à l'avance,,public,CALL,,CAR_DEALER,,,,,,,Free,,,,,,,,,
ELEC,Fontana Nissan,16444 S Highland Ave,,Fontana,CA,92336,,909-574-2288,E,,Public - Call ahead,Dealership business hours,,,,,,2,,,Non-Networked,,200-9,34.135345,-117.445732,2019-08-08,39892,2020-01-21 18:34:38 UTC,P,,,2011-03-15,,,,,J1772,US,,,,Public - Appeler à l'avance,,public,CALL,,CAR_DEALER,,,,,,,Free,,,,,,,,,
ELEC,Premier Nissan of Fremont,5701 Cushing Pkwy,,Fremont,CA,94538,,510-668-8700,E,,Public - Call ahead,Dealership business hours,,,,,,2,1,,Non-Networked,,GPS,37.489389,-121.9576,2019-09-09,39893,2020-01-21 18:34:38 UTC,P,,,2011-03-15,,,,,J1772,US,,,,Public - Appeler à l'avance,,public,CALL,,CAR_DEALER,,,,,,,Free,,,,,,,,,
ELEC,Lithia Nissan -Fresno,5580 N Blackstone Ave,,Fresno,CA,93710,,559-435-3500,E,,Public - Call ahead,Dealership business hours,,,,,,1,,,Non-Networked,,200-9,36.818622,-119.789796,2019-08-08,39894,2020-01-21 18:34:38 UTC,P,,,2011-03-15,,,,,J1772,US,,,,Public - Appeler à l'avance,,public,CALL,,CAR_DEALER,,,,,,,Free,,,,,,,,,
ELEC,Imperio Nissan of Garden Grove,9222 Trask Ave,,Garden Grove,CA,92844,,888-720-5391,E,,Public - Call ahead,Dealership business hours,,,,,,2,1,,Non-Networked,,200-9,33.766376,-117.968337,2019-09-09,39895,2020-01-21 18:34:38 UTC,P,,,2011-03-15,,,,,CHADEMO J1772,US,,,,Public - Appeler à l'avance,,public,CALL,,CAR_DEALER,,,,,,,Free,,,,,,,,,
ELEC,Gardena Nissan,1670 W Redondo Beach Blvd,,Gardena,CA,90247,,310-532-1600,E,,Public - Call ahead,Dealership business hours,,,,,,1,,,Non-Networked,,200-8,33.889201,-118.307028,2019-08-08,39896,2020-01-21 18:34:38 UTC,P,,,2011-03-15,,,,,J1772,US,,,,Public - Appeler à l'avance,,public,CALL,,CAR_DEALER,,,,,,,Free,,,,,,,,,
ELEC,South County Nissan,400 Automall Dr,,Gilroy,CA,95020,,408-842-1777,E,,Public - Call ahead,Dealership business hours,,,,,,1,,,Non-Networked,,200-9,36.996869,-121.558573,2019-09-09,39897,2020-01-21 18:34:38 UTC,P,,,2011-03-15,,,,,J1772,US,,,,Public - Appeler à l'avance,,public,CALL,,CAR_DEALER,,,,,,,Free,,,,,,,,,
ELEC,Glendale Nissan,727 S Brand Blvd,,Glendale,CA,91204,,,E,,Public - Call ahead,Dealership business hours; contact 630-469-6100 for more information,,,,,,1,,,Non-Networked,,200-9,34.137054,-118.25536,2020-01-13,39898,2020-01-21 18:34:38 UTC,P,,,2011-03-15,,,,,J1772,US,,,,Public - Appeler à l'avance,,public,CALL,,CAR_DEALER,,,,,,,Free,,,,,,,,,
ELEC,Santa Barbara Nissan,425 S Kellogg Ave,,Goleta,CA,93117,,805-967-1130,E,,Public - Call ahead,Dealership business hours,,,,,,3,1,,Non-Networked,,200-9,34.43427,-119.820934,2019-09-09,39899,2020-01-21 18:34:38 UTC,P,,,2011-03-15,,,,,J1772,US,,,,Public - Appeler à l'avance,,public,CALL,,CAR_DEALER,,,,,,,Free,,,,,,,,,
ELEC,Hayward Nissan,24644 Mission Blvd,,Hayward,CA,94544,,510-372-2800,E,,Public - Call ahead,Dealership business hours,,,,,,2,1,,Non-Networked,,200-9,37.662305,-122.075178,2019-09-09,39901,2020-01-21 18:34:38 UTC,P,,,2011-03-15,,,,,CHADEMO J1772,US,,,,Public - Appeler à l'avance,,public,CALL,,CAR_DEALER,,,,,,,Free,,,,,,,,,
ELEC,Pedder Nissan,200 Carriage Cir,,Hemet,CA,92545,,951-766-1446,E,,Public - Call ahead,Dealership business hours,,,,,,1,,,Non-Networked,,200-9,33.741163,-117.031718,2019-08-08,39902,2020-01-21 18:34:38 UTC,P,,,2011-03-15,,,,,J1772,US,,,,Public - Appeler à l'avance,,public,CALL,,CAR_DEALER,,,,,,,Free,,,,,,,,,
ELEC,Surf City Nissan,17331 Beach Blvd,,Huntington Beach,CA,92647,,714-500-6000,E,,Public - Call ahead,Dealership business hours,,,,,,2,1,,Non-Networked,,200-9,33.71069,-117.989861,2019-08-08,39903,2020-01-21 18:34:38 UTC,P,,,2011-03-15,,,,,CHADEMO J1772,US,,,,Public - Appeler à l'avance,,public,CALL,,CAR_DEALER,,,,,,,Free,,,,,,,,,
ELEC,Nissan of Irvine,32 Auto Center Dr,,Irvine,CA,92618,,949-385-6044,E,,Public - Call ahead,Dealership business hours,,,,,,2,1,,Non-Networked,,200-9,33.632505,-117.723298,2019-09-09,39904,2020-01-21 18:34:38 UTC,P,,,2011-03-15,,,,,CHADEMO J1772,US,,,,Public - Appeler à l'avance,,public,CALL,,CAR_DEALER,,,,,,,,,,,,,,,,
ELEC,Torre Nissan,79125 Highway 111,,La Quinta,CA,92253,,760-777-8999,E,,Public - Call ahead,Dealership business hours,,,,,,2,1,,Non-Networked,,200-8,33.707786,-116.283603,2019-09-09,39905,2020-01-21 18:34:38 UTC,P,,,2011-03-15,,,,,CHADEMO J1772,US,,,,Public - Appeler à l'avance,,public,CALL,,CAR_DEALER,,,,,,,Free,,,,,,,,,
ELEC,Nissan of Downtown Los Angeles,635 W Washington Blvd,,Los Angeles,CA,90015,,213-748-4501,E,,Public - Call ahead,Dealership business hours,,,,,,1,1,,Non-Networked,,200-9,34.035168,-118.273229,2019-08-08,39906,2020-01-21 18:34:38 UTC,P,,,2011-03-15,,,,,CHADEMO J1772,US,,,,Public - Appeler à l'avance,,public,CALL,,CAR_DEALER,,,,,,,Free,,,,,,,,,
ELEC,Universal City Nissan,3550 Cahuenga Blvd W,,Los Angeles,CA,90068,,818-769-8100,E,,Public - Call ahead,Dealership business hours,,,,,,2,1,,Non-Networked,,200-9,34.133446,-118.356601,2019-09-09,39907,2020-01-21 18:34:38 UTC,P,,,2011-03-15,,,,,J1772,US,,,,Public - Appeler à l'avance,,public,CALL,,CAR_DEALER,,,,,,,Free,,,,,,,,,
ELEC,Razzari Nissan,1675 Auto Center Dr,,Merced,CA,95340,,209-383-0100,E,,Public - Call ahead,Dealership business hours,,,,,,1,,,Non-Networked,,200-9,37.305891,-120.502428,2019-08-08,39908,2020-01-21 18:34:38 UTC,P,,,2011-03-15,,,,,J1772,US,,,,Public - Appeler à l'avance,,public,CALL,,CAR_DEALER,,,,,,,Free,,,,,,,,,
ELEC,Nissan of Mission Hills,11000 Sepulveda Blvd,,Mission Hills,CA,91345,,818-838-4444,E,,Public - Call ahead,Dealership business hours,,,,,,1,,,Non-Networked,,200-9,34.269809,-118.466606,2019-08-08,39910,2020-01-21 18:34:38 UTC,P,,,2011-03-15,,,,,J1772,US,,,,Public - Appeler à l'avance,,public,CALL,,CAR_DEALER,,,,,,,Free,,,,,,,,,
ELEC,Central Valley Nissan,4530 McHenry Ave,,Modesto,CA,95356,,209-526-3320,E,,Public - Call ahead,Dealership business hours,,,,,,1,,,Non-Networked,,200-8,37.705119,-120.99471,2019-08-08,39911,2020-01-21 18:34:38 UTC,P,,,2011-03-15,,,,,J1772,US,,,,Public - Appeler à l'avance,,public,CALL,,CAR_DEALER,,,,,,,Free,,,,,,,,,
ELEC,Metro Nissan of Montclair,9440 Autoplex Dr,,Montclair,CA,91763,,909-625-5575,E,,Public - Call ahead,Dealership business hours,,,,,,1,1,,Non-Networked,,200-9,34.082404,-117.694876,2019-12-12,39912,2020-01-21 18:34:38 UTC,P,,,2019-11-08,,,,,CHADEMO J1772,US,,,,Public - Appeler à l'avance,,public,CALL,,CAR_DEALER,,,,,,,Free,,,,,,,,,
ELEC,Metro Nissan of Redlands,1665 Industrial Park Ave,,Redlands,CA,92374,,909-793-3377,E,,Public - Call ahead,Dealership business hours,,,,,,3,1,,Non-Networked,,200-9,34.065387,-117.212007,2019-09-09,39913,2020-01-21 18:34:38 UTC,P,,,2011-03-15,,,,,CHADEMO J1772,US,,,,Public - Appeler à l'avance,,public,CALL,,CAR_DEALER,,,,,,,Free,,,,,,,,,
ELEC,Napa Nissan,510 Soscol Ave,,Napa,CA,94559,,707-253-1551,E,,Public - Call ahead,Dealership business hours,,,,,,1,,,Non-Networked,,200-9,38.292706,-122.277767,2019-08-08,39914,2020-01-21 18:34:38 UTC,P,,,2011-03-15,,,,,J1772,US,,,,Public - Appeler à l'avance,,public,CALL,,CAR_DEALER,,,,,,,Free,,,,,,,,,
ELEC,Mossy Nissan,2700 National City Blvd,,National City,CA,91950,,619-474-7011,E,,Public - Call ahead,Dealership business hours,,,,,,1,,,Non-Networked,,200-9,32.659001,-117.100836,2019-09-09,39915,2020-01-21 18:34:38 UTC,P,,,2011-03-15,,,,,J1772,US,,,,Public - Appeler à l'avance,,public,CALL,,CAR_DEALER,,,,,,,Free,,,,,,,,,
ELEC,Mossy Nissan - Oceanside,3535 College Blvd,,Oceanside,CA,92056,,760-720-9797,E,,Public - Call ahead,Dealership business hours,,,,,,2,1,,Non-Networked,,200-9,33.181953,-117.298334,2019-09-09,39916,2020-01-21 18:34:38 UTC,P,,,2011-03-15,,,,,CHADEMO J1772,US,,,,Public - Appeler à l'avance,,public,CALL,,CAR_DEALER,,,,,,,Free,,,,,,,,,
ELEC,Stadium Nissan,1140 W Katella Ave,,Orange,CA,92867,,714-633-8430,E,,Public - Call ahead,Dealership business hours,,,,,,2,1,,Non-Networked,,200-9,33.80857,-117.864434,2019-09-09,39917,2020-01-21 18:34:38 UTC,P,,,2011-03-15,,,,,CHADEMO J1772,US,,,,Public - Appeler à l'avance,,public,CALL,,CAR_DEALER,,,,,,,Free,,,,,,,,,
ELEC,Team Nissan,1801 Auto Center Dr,,Oxnard,CA,93036,,805-485-8787,E,,Public - Call ahead,Dealership business hours,,,,,,1,1,,Non-Networked,,200-9,34.227773,-119.149771,2019-08-08,39918,2020-01-21 18:34:38 UTC,P,,,2011-03-15,,,,,J1772,US,,,,Public - Appeler à l'avance,,public,CALL,,CAR_DEALER,,,,,,,Free,,,,,,,,,
ELEC,Antelope Valley Nissan,451 Auto Center Dr,"5th St West and Auto Center Dr; access EVSE via the service drive, located adjacent to the front door",Palmdale,CA,93551,,661-274-4700 x214,E,,Public - Call ahead,24 hours daily; primarily for customer use,,,,,,2,1,,Non-Networked,,200-9,34.591283,-118.138341,2019-09-09,39919,2020-01-21 18:34:38 UTC,P,,,2011-03-15,,,,,J1772,US,,,,Public - Appeler à l'avance,,public,CALL,,CAR_DEALER,,,,,,,Free,,,,,,,,,
ELEC,North Bay Nissan,1250 Auto Center Dr,,Petaluma,CA,94952,,707-769-7700,E,,Public - Call ahead,Dealership business hours,,,,,,4,,,Non-Networked,,200-9,38.267202,-122.665068,2019-09-09,39920,2020-01-21 18:34:38 UTC,P,,,2011-03-15,,,,,J1772,US,,,,Public - Appeler à l'avance,,public,CALL,,CAR_DEALER,,,,,,,Free,,,,,,,,,
ELEC,Mossy Nissan - Poway,14100 Poway Rd,,Poway,CA,92064,,858-668-3600,E,,Public - Call ahead,Dealership business hours,,,,,,1,1,,Non-Networked,,200-9,32.956772,-117.025943,2019-08-08,39921,2020-01-21 18:34:38 UTC,P,,,2011-03-15,,,,,CHADEMO J1772,US,,,,Public - Appeler à l'avance,,public,CALL,,CAR_DEALER,,,,,,,Free,,,,,,,,,
ELEC,Crown Nissan,300 E Cypress Ave,,Redding,CA,96002,,530-223-2177,E,,Public - Call ahead,Dealership business hours,,,,,,1,,,Non-Networked,,200-9,40.571632,-122.36654,2019-08-08,39922,2020-01-21 18:34:38 UTC,P,,,2011-03-15,,,,,J1772,US,,,,Public - Appeler à l'avance,,public,CALL,,CAR_DEALER,,,,,,,Free,,,,,,,,,
ELEC,Boardwalk Nissan,1 Bair Island Rd,,Redwood City,CA,94063,,650-364-0100,E,,Public - Call ahead,Dealership business hours,,,,,,3,1,,Non-Networked,,200-9,37.495963,-122.227322,2019-09-09,39923,2020-01-21 18:34:38 UTC,P,,,2011-03-15,,,,,J1772,US,,,,Public - Appeler à l'avance,,public,CALL,,CAR_DEALER,,,,,,,Free,,,,,,,,,
ELEC,Hanlees Hilltop Nissan,3277 Auto Plaza,,Richmond,CA,94806,,510-222-4900,E,,Public - Call ahead,Dealership business hours,,,,,,1,,,Non-Networked,,200-9,37.985253,-122.32124,2019-08-08,39925,2020-01-21 18:34:38 UTC,P,,,2011-03-15,,,,,J1772,US,,,,Public - Appeler à l'avance,,public,CALL,,CAR_DEALER,,,,,,,Free,,,,,,,,,
ELEC,Raceway Nissan,6030 Sycamore Canyon Blvd,,Riverside,CA,92507,,951-571-9300,E,,Public - Call ahead,Dealership business hours,,,,,,1,,,Non-Networked,,200-9,33.941878,-117.297603,2019-08-08,39926,2020-01-21 18:34:38 UTC,P,,,2011-03-15,,,,,J1772,US,,,,Public - Appeler à l'avance,,public,CALL,,CAR_DEALER,,,,,,,Free,,,,,,,,,
ELEC,Riverside Nissan,8330 Indiana Ave,,Riverside,CA,92504,,951-688-9420,E,,Public - Call ahead,Dealership business hours,,,,,,2,,,Non-Networked,,200-8,33.926178,-117.420236,2019-09-09,39927,2020-01-21 18:34:38 UTC,P,,,2011-03-15,,,,,J1772,US,,,,Public - Appeler à l'avance,,public,CALL,,CAR_DEALER,,,,,,,Free,,,,,,,,,
ELEC,Future Nissan,600 Automall Dr,,Roseville,CA,95661,,916-969-5700,E,,Public - Call ahead,Dealership business hours,,,,,,1,1,,Non-Networked,,GPS,38.752198,-121.256452,2019-08-08,39928,2020-02-18 23:12:14 UTC,P,,,2011-03-15,,,,,CHADEMO J1772,US,,,,Public - Appeler à l'avance,,public,CALL,,CAR_DEALER,,,,,,,Free,,,,,,,,,
ELEC,Nissan of Sacramento,2820 Auburn Blvd,,Sacramento,CA,95821,,916-488-5400,E,,Public - Call ahead,Dealership business hours,,,,,,1,1,,Non-Networked,,GPS,38.631393,-121.396604,2019-08-08,39929,2020-02-18 23:13:16 UTC,P,,,2016-06-01,,,,,CHADEMO J1772,US,,,,Public - Appeler à l'avance,,public,CALL,,CAR_DEALER,,,,,,,Free,,,,,,,,,
ELEC,My Nissan,222 Auto Center Cir,,Salinas,CA,93907,,831-444-8888,E,,Public - Call ahead,Dealership business hours,,,,,,2,1,,Non-Networked,,GPS,36.720023,-121.662519,2019-12-12,39930,2020-01-21 18:34:38 UTC,P,,,2011-03-15,,,,,CHADEMO J1772,US,,,,Public - Appeler à l'avance,,public,CALL,,CAR_DEALER,,,,,,,Free,,,,,,,,,
ELEC,Larry H Miller Nissan - San Bernardino,735 Showcase Dr S,,San Bernardino,CA,92408,,,E,,Public - Call ahead,Dealership business hours; contact 909-885-3883 for more information,,,,,,1,1,,Non-Networked,,GPS,34.074378,-117.298,2020-01-13,39931,2020-01-21 18:34:38 UTC,P,,,2011-03-15,,,,,CHADEMO J1772,US,,,,Public - Appeler à l'avance,,public,CALL,,CAR_DEALER,,,,,,,Free,,,,,,,,,
ELEC,Mossy Nissan - Kearny Mesa,8118 Clairemont Mesa Blvd,,San Diego,CA,92111,,858-565-4411,E,,Public - Call ahead,Dealership business hours,,,,,,1,1,,Non-Networked,,200-9,32.833179,-117.147384,2019-09-09,39932,2020-01-21 18:34:38 UTC,P,,,2011-03-15,,,,,CHADEMO J1772,US,,,,Public - Appeler à l'avance,,public,CALL,,CAR_DEALER,,,,,,,Free,,,,,,,,,
ELEC,Pacific Nissan,4433 Mission Bay Dr,,San Diego,CA,92109,,858-581-3200,E,,Public - Call ahead,Dealership business hours,,,,,,1,1,,Non-Networked,,200-9,32.802475,-117.215269,2019-09-09,39933,2020-01-21 18:34:38 UTC,P,,,2011-04-01,,,,,CHADEMO J1772,US,,,,Public - Appeler à l'avance,,public,CALL,,CAR_DEALER,,,,,,,Free,,,,,,,,,
ELEC,Nissan Sunnyvale,680 E El Camino Real,,Sunnyvale,CA,94087,,408-735-6888  877-494-3833,E,,Public - Call ahead,Dealership business hours,,,,,,2,,,Non-Networked,,200-9,37.359362,-122.022783,2019-09-09,39934,2020-01-21 18:34:38 UTC,P,,,2011-03-15,,,,,J1772,US,,,,Public - Appeler à l'avance,,public,CALL,,CAR_DEALER,,,,,,,Free,,,,,,,,,
ELEC,Premier Nissan,1120 W Capitol Expy,,San Jose,CA,95136,,408-978-1234,E,,Public - Call ahead,Dealership business hours,,,,,,1,1,,Non-Networked,,GPS,37.275144,-121.877656,2019-09-09,39935,2020-01-21 18:34:38 UTC,P,,,2011-03-15,,,,,J1772,US,,,,Public - Appeler à l'avance,,public,CALL,,CAR_DEALER,,,,,,,Free,,,,,,,,,
ELEC,Nissan - San Juan Capistrano,33633 Camino Capistrano,,San Juan Capistrano,CA,92675,,888-718-2419,E,,Public - Call ahead,Dealership business hours,,,,,,2,1,,Non-Networked,,200-9,33.47443,-117.676142,2019-09-09,39936,2020-01-21 18:34:38 UTC,P,,,2011-03-15,,,,,CHADEMO J1772,US,,,,Public - Appeler à l'avance,,public,CALL,,CAR_DEALER,,,,,,,Free,,,,,,,,,
ELEC,San Leandro Nissan,1152 Marina Blvd,,San Leandro,CA,94577,,510-347-4000,E,,Public - Call ahead,Dealership business hours,,,,,,2,1,,Non-Networked,,GPS,37.712609,-122.162746,2019-12-12,39937,2020-01-21 18:34:38 UTC,P,,,2011-03-15,,,,,CHADEMO J1772,US,,,,Public - Appeler à l'avance,,public,CALL,,CAR_DEALER,,,,,,,Free,,,,,,,,,
ELEC,Coast Nissan,12150 Los Osos Valley Rd,,San Luis Obispo,CA,93405,,805-543-4423,E,,Public - Call ahead,Dealership business hours,,,,,,4,1,,Non-Networked,,GPS,35.25062,-120.68455,2019-12-12,39938,2020-01-21 18:34:38 UTC,P,,,2011-03-15,,,,,CHADEMO J1772,US,,,,Public - Appeler à l'avance,,public,CALL,,CAR_DEALER,,,,,,,Free,,,,,,,,,
ELEC,Stevens Creek Nissan,4855 Stevens Creek Blvd,Located on the southeast corner of building,Santa Clara,CA,95051,,408-983-5900,E,,Public - Call ahead,Dealership business hours,,,,,,1,,,Non-Networked,,200-9,37.323569,-121.988027,2019-09-09,39939,2020-01-21 18:34:38 UTC,P,,,2011-03-15,,,,,J1772,US,,,,Public - Appeler à l'avance,,public,CALL,,CAR_DEALER,,,,,,,Free,,,,,,,,,
ELEC,Jim Bone Nissan,1275 Santa Rosa Ave,,Santa Rosa,CA,95404,,707-545-7050,E,,Public - Call ahead,Dealership business hours,,,,,,4,,,Non-Networked,,200-9,38.425537,-122.714089,2019-09-09,39943,2020-01-21 18:34:38 UTC,P,,,2011-03-15,,,,,J1772,US,,,,Public - Appeler à l'avance,,public,CALL,,CAR_DEALER,,,,,,,Free,,,,,,,,,
ELEC,Cardinale Nissan,1661 Del Monte Blvd,,Seaside,CA,93955,,831-393-0600,E,,Public - Call ahead,Dealership business hours,,,,,,2,1,,Non-Networked,,GPS,36.611189,-121.849899,2019-12-12,39944,2020-01-21 18:34:38 UTC,P,,,2011-03-15,,,,,CHADEMO J1772,US,,,,Public - Appeler à l'avance,,public,CALL,,CAR_DEALER,,,,,,,Free,,,,,,,,,
ELEC,Nissan of Van Nuys,5425 Van Nuys Blvd,,Sherman Oaks,CA,91401,,818-787-8400,E,,Public - Call ahead,Dealership business hours,,,,,,1,,,Non-Networked,,200-9,34.168824,-118.449059,2019-09-09,39945,2020-01-21 18:34:38 UTC,P,,,2014-04-22,,,,,J1772,US,,,,Public - Appeler à l'avance,,public,CALL,,CAR_DEALER,,,,,,,Free,,,,,,,,,
ELEC,First Nissan,2325 1st St,,Simi Valley,CA,93065,,805-526-9700,E,,Public - Call ahead,Dealership business hours,,,,,,1,1,,Non-Networked,,200-8,34.277324,-118.778957,2019-09-09,39947,2020-01-21 18:34:38 UTC,P,,,2011-03-15,,,,,J1772,US,,,,Public - Appeler à l'avance,,public,CALL,,CAR_DEALER,,,,,,,Free,,,,,,,,,
ELEC,Nissan of Stockton,3077 E Hammer Ln,,Stockton,CA,95212,,209-956-6500,E,,Public - Call ahead,Dealership business hours,,,,,,2,,,Non-Networked,,200-9,38.022022,-121.275339,2019-09-09,39948,2020-01-21 18:34:38 UTC,P,,,2011-03-15,,,,,J1772,US,,,,Public - Appeler à l'avance,,public,CALL,,CAR_DEALER,,,,,,,Free,,,,,,,,,
ELEC,Quality Nissan - Temecula,41895 Motor Car Pkwy,,Temecula,CA,92591,,951-676-6601,E,,Public - Call ahead,Dealership business hours,,,,,,2,1,,Non-Networked,,200-9,33.516768,-117.155039,2019-09-09,39949,2020-01-21 18:34:38 UTC,P,,,2011-03-15,,,,,CHADEMO J1772,US,,,,Public - Appeler à l'avance,,public,CALL,,CAR_DEALER,,,,,,,Free,,,,,,,,,
ELEC,Tracy Nissan,3195 N Naglee Rd,,Tracy,CA,95304,,209-820-6000,E,,Public - Call ahead,Dealership business hours,,,,,,1,,,Non-Networked,,GPS,37.7599055538751,-121.463205186508,2019-08-08,39951,2020-01-21 18:34:38 UTC,P,,,2011-03-15,,,,,J1772,US,,,,Public - Appeler à l'avance,,public,CALL,,CAR_DEALER,,,,,,,Free,,,,,,,,,
ELEC,Nissan of Tustin,30 Auto Center Dr,,Tustin,CA,92782,,714-669-8282,E,,Public - Call ahead,Dealership business hours,,,,,,1,1,,Non-Networked,,200-9,33.72484,-117.799302,2019-09-09,39952,2020-01-21 18:34:38 UTC,P,,,2011-03-15,,,,,J1772,US,,,,Public - Appeler à l'avance,,public,CALL,,CAR_DEALER,,,,,,,,,,,,,,,,
ELEC,Nissan of Vacaville,671 Orange Dr,,Vacaville,CA,95687,,707-455-4500,E,,Public - Call ahead,Dealership business hours,,,,,,1,,,Non-Networked,,200-9,38.381441,-121.941218,2019-08-08,39953,2020-01-21 18:34:38 UTC,P,,,2011-03-15,,,,,J1772,US,,,,Public - Appeler à l'avance,,public,CALL,,CAR_DEALER,,,,,,,Free,,,,,,,,,
ELEC,Champion Nissan,24111 Creekside Rd,,Valencia,CA,91355,,661-255-2020,E,,Public - Call ahead,Dealership business hours,,,,,,3,,,Non-Networked,,200-9,34.420546,-118.557774,2019-09-09,39954,2020-01-21 18:34:38 UTC,P,,,2011-03-15,,,,,J1772,US,,,,Public - Appeler à l'avance,,public,CALL,,CAR_DEALER,,,,,,,Free,,,,,,,,,
ELEC,Vallejo Nissan,3287 Sonoma Blvd,,Vallejo,CA,94590,,707-643-8291,E,,Public - Call ahead,Dealership business hours,,,,,,1,,,Non-Networked,,200-9,38.118088,-122.255493,2019-08-08,39955,2020-01-21 18:34:38 UTC,P,,,2011-03-15,,,,,J1772,US,,,,Public - Appeler à l'avance,,public,CALL,,CAR_DEALER,,,,,,,Free,,,,,,,,,
ELEC,Valley Hi Nissan,15722 Valley Park Ln,,Victorville,CA,92394,,,E,,Public - Call ahead,Dealership business hours; contact 760-241-1700 for more information,,,,,,1,,,Non-Networked,,GPS,34.517883,-117.3219,2020-01-13,39956,2020-01-21 18:34:38 UTC,P,,,2011-03-15,,,,,J1772,US,,,,Public - Appeler à l'avance,,public,CALL,,CAR_DEALER,,,,,,,Free,,,,,,,,,
ELEC,Nissan of Visalia,830 S Ben Maddox Way,,Visalia,CA,93292,,559-734-3333,E,,Public - Call ahead,Dealership business hours,,,,,,1,,,Non-Networked,,200-9,36.32327,-119.27569,2019-09-09,39957,2020-01-21 18:34:38 UTC,P,,,2011-03-15,,,,,J1772,US,,,,Public - Appeler à l'avance,,public,CALL,,CAR_DEALER,,,,,,,Free,,,,,,,,,
ELEC,West Covina Nissan,205 N Citrus St,,West Covina,CA,91791,,626-732-1000,E,,Public - Call ahead,Dealership business hours,,,,,,1,1,,Non-Networked,,200-9,34.074227,-117.890899,2019-09-09,39959,2020-01-21 18:34:38 UTC,P,,,2011-03-15,,,,,J1772,US,,,,Public - Appeler à l'avance,,public,CALL,,CAR_DEALER,,,,,,,Free,,,,,,,,,
ELEC,BROOKFIELD WEST,333 S Hope St,"333 S HOPE EV10; GARAGE PARKING RATES APPLY: Station is on Level E.
333 S HOPE EV2; GARAGE PARKING RATES APPLY: Enter parking structure, go to Level A, follow signs.
333 S HOPE EV5; GARAGE PARKING RATES APPLY: Enter Parking Structure, go to Level F, Station by Elevator
333 S HOPE EV7; GARAGE PARKING RATES APPLY: Level G Near the Elevator
333 S HOPE EV9; GARAGE PARKING RATES APPLY: The station is on Level H near the elevator. ",Los Angeles,CA,90071,,888-758-4389,E,,Public,24 hours daily,,,,,,9,,,ChargePoint Network,http://www.chargepoint.com/,200-9,34.053626,-118.253273,2020-02-14,40396,2020-02-14 10:15:20 UTC,,,,,,,,,J1772,US,,,,Public,,public,,,,,,,,,,"Pricing is based on length of time. $0 per hour for the first 3 hours, and $5 per additional hour, maximum payment of $30, maximum session time is 24 hours",,,,,,,,,
ELEC,CENTURY PARK,2029 Century Park E,"2029 EV BAY 1; Enter garage and proceed to P1 and follow signs
2029 EV BAY 2; Enter Garage and proceed to P1
2029 EV BAY 3; -
2029 EV BAY 4; -
2029 EV BAY 5; Enter garage and proceed to P1 and follow signs
2029 EV BAY 6; -
2029 EV BAY 7-8; The station is located on level P1
2029 EV BAY 9; -",Los Angeles,CA,90067,,888-758-4389,E,,Public,24 hours daily,,,,,1,9,,,ChargePoint Network,http://www.chargepoint.com/,200-8,34.059587,-118.413279,2020-02-14,40397,2020-02-14 10:15:20 UTC,,,,,,,,,J1772 NEMA520,US,,,,Public,,public,,,,,,,,,,$0.95 per hour,,,,,,,,,
ELEC,CENTURY PARK,2049 Century Park E,"2049 EV BAY 1-2
2049 EV BAY 3-4
2049 EV BAY 5; -
2049 EV BAY 6; -
2049 EV BAY 7-8; The station is located on level P1
2049 EV BAY 9; -",Los Angeles,CA,90067,,888-758-4389,E,,Public,24 hours daily,,,,,,9,,,ChargePoint Network,http://www.chargepoint.com/,200-9,34.058659,-118.412867,2020-02-14,40398,2020-02-14 10:15:20 UTC,,,,,,,,,J1772,US,,,,Public,,public,,,,,,,,,,$0.95 per hour,,,,,,,,,
ELEC,CENTURY PARK,2000 Avenue of the Stars,"AOS EV BAY 2-1; Stations are on P1 near the 2000 AOS Escalator.
AOS EV BAY 3; Enter garage and proceed to P1 and follow signs.
AOS EV BAY 4; Enter garage and proceed to P1 and follow signs.
AOS EV BAY 5; -
AOS EV BAY 6; Enter garage and proceed to P1 and follow signs.
AOS EV BAY 7; -
AOS EV BAY 9-8; -",Los Angeles,CA,90067,,888-758-4389,E,,Public,24 hours daily,,,,,1,9,,,ChargePoint Network,http://www.chargepoint.com/,200-8,34.058931,-118.415809,2020-02-14,40399,2020-02-14 10:15:20 UTC,,,,,,,,,J1772 NEMA520,US,,,,Public,,public,,,,,,,,,,$0.95 per hour,,,,,,,,,
ELEC,MARTINEZ CA,407 Estudillo St,MTZ AMTRAK #1; -,Martinez,CA,94553,,888-758-4389,E,,Public,24 hours daily,,,,,,2,,,ChargePoint Network,http://www.chargepoint.com/,GPS,38.0192133,-122.1376306,2020-02-14,40401,2020-02-14 10:15:20 UTC,,,,,,,,,J1772,US,,,,Public,,public,,,,,,,,,,"Pricing is based on an hourly rate. $1 per hour, maximum payment of $12, maximum session time is 24 hours",,,,,,,,,
ELEC,MARTINEZ CA,525 Henrietta St,CITY HALL; -,Martinez,CA,94553,,888-758-4389,E,,Public,24 hours daily,,,,,1,1,,,ChargePoint Network,http://www.chargepoint.com/,GPS,38.0138817,-122.1348572,2020-02-14,40402,2020-02-14 10:15:20 UTC,,,,,,,,,J1772 NEMA520,US,,,,Public,,public,,,,,,,,,,Pricing is based on an hourly rate. $1 per hour,,,,,,,,,
ELEC,Smart Center San Diego,4750 Kearny Mesa Rd,Co-located with Mercedes-Benz dealership,San Diego,CA,92111,,858-569-6900,E,,Public - Call ahead,Dealership business hours; customer use only,,,,,1,1,,,Non-Networked,,GPS,32.82408524,-117.1471252,2019-05-09,40407,2020-01-21 18:34:38 UTC,P,,,2011-05-15,,,,,J1772 NEMA520,US,,,,Public - Appeler à l'avance,,public,CALL,,OFFICE_BLDG,,,,,,,Free,,,,,,,,,
ELEC,CCSF SFMTA,2501 23rd Street,"SFGH 1; Public Parking Level 3
SFGH 2; Public Parking Level 3",San Francisco,CA,94110,,888-758-4389,E,,Public,24 hours daily,,,,,2,2,,,ChargePoint Network,http://www.chargepoint.com/,200-9,37.754333,-122.404839,2020-02-14,41206,2020-02-14 10:15:20 UTC,,,,,,,,,J1772 NEMA520,US,,,,Public,,public,,,,,,,,,,"$0.23 per kWh, maximum payment of $5, $2 per session",,,,,,,,,
ELEC,2999 OAK ROAD,2999 Oak Rd,"STATION 3
STATION; -
STATIONONE; -",Walnut Creek,CA,94597,,888-758-4389,E,,Public,24 hours daily,,,,,,6,,,ChargePoint Network,http://www.chargepoint.com/,200-9,37.928337,-122.058247,2020-02-14,41224,2020-02-14 10:15:20 UTC,,,,,,,,,J1772,US,,,,Public,,public,,,,,,,,,,Free,,,,,,,,,
ELEC,BROADWAY MGT,1151 Harbor Bay Pkwy,1151 GATEWAY L2; In front of REJ Electric Inc,Alameda,CA,94502,,888-758-4389,E,,Public,24 hours daily,,,,,,2,,,ChargePoint Network,http://www.chargepoint.com/,GPS,37.7269773,-122.2318687,2020-02-14,41311,2020-02-14 10:15:20 UTC,,,,,,,,,J1772,US,,,,Public,,public,,,,,,,,,,"Pricing is based on an hourly rate. $0.99 per hour, minimum payment of $0.05, maximum payment of $10, maximum session time is 24 hours",,,,,,,,,
ELEC,COUNTY EVSE,3800 Branch Center Rd,BRANCH CENTER 2; -,Sacramento,CA,95827,,888-758-4389,E,,Public,24 hours daily,,,,,,2,,,ChargePoint Network,http://www.chargepoint.com/,200-8,38.5517091,-121.3381591,2020-02-14,41325,2020-02-14 10:15:20 UTC,,,,,,,,,J1772,US,,,,Public,,public,,,,,,,,,,Free,,,,,,,,,
ELEC,PALO ALTO CA,528 High St,"HIGH #1; High/Alma Parking Garage (Lot R)
HIGH #2; -
HIGH #3; -
HIGH #4; -",Palo Alto,CA,94301,,888-758-4389,E,,Public,24 hours daily,,,,,,8,,,ChargePoint Network,http://www.chargepoint.com/,200-8,37.443509,-122.162837,2020-02-14,41329,2020-02-14 10:15:20 UTC,,,,,,,,,J1772,US,,,,Public,,public,,,,,,,,,,"Pricing is based on length of time and kWh used. $0 per hour, and $2 per additional hour, $0.23 per kWh",,,,,,,,,
ELEC,PALO ALTO CA,250 Hamilton Ave,"HAMILTON #1; City Hall Parking Garage
HAMILTON #2; -",Palo Alto,CA,94301,,888-758-4389,E,,Public,24 hours daily,,,,,1,3,,,ChargePoint Network,http://www.chargepoint.com/,200-9,37.444402,-122.160043,2020-02-14,41330,2020-02-14 10:15:20 UTC,,,,,,,,,J1772 NEMA520,US,,,,Public,,public,,,,,,,,,,$0.23 per kWh,,,,,,,,,
ELEC,STANFORD,360 Oak Rd,"STATION 1 PS-5; Located in the northwest corner on Level 1 in this garage at 360 Oak Road, Stanford CA, 94305
STATION 2 PS-5; Located in the northwest corner on Level 1 in this garage at 360 Oak Road, Stanford CA, 94305
STATION 3 PS-5; This Station is in the northwest corner on the first level of the garage.",Stanford,CA,94305,,888-758-4389,E,,Public,24 hours daily,,,,,,6,,,ChargePoint Network,http://www.chargepoint.com/,200-9,37.431697,-122.182097,2020-02-14,41332,2020-02-14 10:15:20 UTC,,,,,,,,,J1772,US,,,,Public,,public,,,,,,,,,,"Pricing is based on an hourly rate. $2 per hour from 6:00 AM to 4:00 PM, minimum payment of $0.5",,,,,,,,,
ELEC,CITY OF REDWOOD,1120 Roosevelt Ave,RED MORTON RGHT,Redwood City,CA,94061,,888-758-4389,E,,Public,24 hours daily,,,,,,2,,,ChargePoint Network,http://www.chargepoint.com/,GPS,37.4723387,-122.2353442,2020-02-14,41334,2020-02-14 10:15:20 UTC,,,,,,,,,J1772,US,,,,Public,,public,,,,,,,,,,$2 per hour,,,,,,,,,
ELEC,CCSF SFMTA,355 McAllister St,"CIVIC CENTER 10; -
CIVIC CENTER 11; -
CIVIC CENTER 2; Public Parking Level 1 & 2, Parking Rates Apply
CIVIC CENTER 6; Public Parking Level 1&2, Parking Rates Apply 
CIVIC CENTER 9; -
CIVIC CTR 7; Garage
CIVIC CTR 8; Garage",San Francisco,CA,94102,,888-758-4389,E,,Public,24 hours daily,,,,,2,12,,,ChargePoint Network,http://www.chargepoint.com/,200-8,37.780232,-122.417494,2020-02-14,41338,2020-02-14 10:15:20 UTC,,,,,,,,,J1772 NEMA520,US,,,,Public,,public,,,,,,,,,,"$0.28 per kWh, maximum payment of $5, $2 per session",,,,,,,,,
ELEC,CCSF SFMTA,1610 Geary Blvd,"JAPAN CENTER; Public Parking Level 1 - Parking Rates Apply
JAPAN CTR 2; Main Garage",San Francisco,CA,94115,,888-758-4389,E,,Public,24 hours daily,,,,,1,3,,,ChargePoint Network,http://www.chargepoint.com/,200-9,37.784939,-122.430408,2020-02-14,41340,2020-02-14 10:15:20 UTC,,,,,,,,,J1772 NEMA520,US,,,,Public,,public,,,,,,,,,,"$0.29 per kWh, maximum payment of $5, $2 per session",,,,,,,,,
ELEC,CCSF SFMTA,1399 Bush St,POLK   BUSH; Public Parking Level 1,San Francisco,CA,94109,,888-758-4389,E,,Public,24 hours daily,,,,,1,1,,,ChargePoint Network,http://www.chargepoint.com/,GPS,37.7886429,-122.4200287,2020-02-14,41341,2020-02-14 10:15:20 UTC,,,,,,,,,J1772 NEMA520,US,,,,Public,,public,,,,,,,,,,"$0.27 per kWh, maximum payment of $5, $2 per session",,,,,,,,,
ELEC,STANFORD,295 Galvez St,"TH STATION 1; This Station is located in front of the Stanford Athletics Shop in L-95 Track House Lot
TH WALL MOUNT; This Station is located in front of the Stanford Athletics Shop in L-95 Track House Lot",Stanford,CA,94305,,888-758-4389,E,,Public,24 hours daily,,,,,,4,,,ChargePoint Network,http://www.chargepoint.com/,200-8,37.43243,-122.163584,2020-02-14,41432,2020-02-14 10:15:20 UTC,,,,,,,,,J1772,US,,,,Public,,public,,,,,,,,,,"Pricing is based on an hourly rate. $2 per hour from 6:00 AM to 4:00 PM, minimum payment of $0.5",,,,,,,,,
ELEC,Marsh Street Parking Structure,881 Marsh St,Located on the lower level,San Luis Obispo,CA,93401,,805-781-7230,E,,Public,24 hours daily; pay lot,,,,,,4,,,Non-Networked,,GPS,35.279705,-120.6609,2019-05-09,41526,2020-01-21 18:34:38 UTC,LG,,,2000-04-15,,,,,J1772,US,,,,Public,,public,,,PARKING_GARAGE,,,,,,,Free,,,,,,,,,
ELEC,HAYDENNATIONAL,3528 Hayden Ave,COMMAND WEST; Provided by EV Connect &amp; Samitaur,Culver City,CA,90232,,888-758-4389,E,,Public,24 hours daily,,,,,,2,,,ChargePoint Network,http://www.chargepoint.com/,200-8,34.0254882,-118.3808512,2020-02-14,41787,2020-02-14 10:15:20 UTC,,,,,,,,,J1772,US,,,,Public,,public,,,,,,,,,,"Pricing is based on length of time and kWh used. $0 per hour for the first 1 hour, and $4 per additional hour, $0.25 per kWh",,,,,,,,,
ELEC,EVSP WALGREENS,2595 E Bidwell St,STORE 9048,Folsom,CA,95630,,888-758-4389,E,,Public,24 hours daily,,,,,,1,,,ChargePoint Network,http://www.chargepoint.com/,GPS,38.6584751,-121.1292927,2020-02-14,41788,2020-02-14 10:15:20 UTC,,,,,,,,,J1772,US,,,,Public,,public,,,,,,,,,,"Pricing is based on length of time and kWh used. $0 per hour, and $10 per additional hour, $0.35 per kWh, maximum payment of $50",,,,,,,,,
ELEC,EVSP WALGREENS,1100 Riley St,STORE 6417; STATION IS ON SIDE FACING GLENN DRIVE,Folsom,CA,95630,,888-758-4389,E,,Public,24 hours daily,,,,,,1,,,ChargePoint Network,http://www.chargepoint.com/,GPS,38.670141,-121.1650395,2020-02-14,41789,2020-02-14 10:15:20 UTC,,,,,,,,,J1772,US,,,,Public,,public,,,,,,,,,,"Pricing is based on length of time and kWh used. $0 per hour, and $10 per additional hour, $0.35 per kWh, maximum payment of $50",,,,,,,,,
ELEC,WHOLE FOODS MKT,3502 Mt Diablo Blvd,LAFAYETTE ST3,Lafayette,CA,94549,,888-758-4389,E,,Public,24 hours daily,,,,,,2,,,ChargePoint Network,http://www.chargepoint.com/,GPS,37.8934422,-122.1171836,2020-02-14,41790,2020-02-14 10:15:20 UTC,,,,,,,,,J1772,US,,,,Public,,public,,,,,,,,,,Free,,,,,,,,,
ELEC,BROOKFIELD OFC,945 W. 8th Street,"LVL 7 SEC C 01; Go to Level 7, stations are on the NE side of the garage near Level 7 elevator
LVL 7 SEC C 02; Go to Level 7, stations are on the NE side of the garage near the  Level 7 elevator.",Los Angeles,CA,90017,,888-758-4389,E,,Public,24 hours daily,,,,,,4,,,ChargePoint Network,http://www.chargepoint.com/,200-8,34.04868,-118.262151,2020-02-14,41791,2020-02-14 10:15:20 UTC,,,,,,,,,J1772,US,,,,Public,,public,,,,,,,,,,"Pricing is based on length of time. $0 per hour for the first 3 hours, and $5 per additional hour, maximum payment of $30, maximum session time is 24 hours",,,,,,,,,
ELEC,BMW GROUP,675 El Camino Real,"WESTIN PA #1; Public station but parking fees apply - station located in parking garage on level G2
WESTIN PA #2; Public station but parking fees apply - station located in parking garage on level g2
WESTIN PA #4; Public station but parking fees apply - station located in parking garage level G2",Palo Alto,CA,94301,,888-758-4389,E,,Public,24 hours daily,,,,,1,3,,,ChargePoint Network,http://www.chargepoint.com/,200-9,37.440413,-122.163198,2020-02-14,41795,2020-02-14 10:15:20 UTC,,,,,,,,,J1772 NEMA520,US,,,,Public,,public,,,,,,,,,,Free,,,,,,,,,
ELEC,EVSP WALGREENS,2201 Arden Way,STORE 6193; The station is located to the left of the store's entrance,Sacramento,CA,95825,,888-758-4389,E,,Public,24 hours daily,,,,,,1,,,ChargePoint Network,http://www.chargepoint.com/,GPS,38.5967011,-121.4149023,2020-02-14,41804,2020-02-14 10:15:20 UTC,,,,,,,,,J1772,US,,,,Public,,public,,,,,,,,,,"Pricing is based on length of time and kWh used. $0 per hour, and $10 per additional hour, $0.35 per kWh, maximum payment of $50",,,,,,,,,
ELEC,EVSP WALGREENS,7299 Laguna Blvd,STORE 5499,Elk Grove,CA,95758,,888-758-4389,E,,Public,24 hours daily,,,,,,1,,,ChargePoint Network,http://www.chargepoint.com/,GPS,38.424099,-121.418617,2020-02-14,42247,2020-02-14 10:15:20 UTC,,,,,,,,,J1772,US,,,,Public,,public,,,,,,,,,,"Pricing is based on length of time and kWh used. $0 per hour, and $10 per additional hour, $0.35 per kWh, maximum payment of $50",,,,,,,,,
ELEC,BROOKFIELD WEST,601 S Figueroa St,"601 S FIG EV1; Station is on P1
601 S FIG EV2; Enter garage, valet will direct you, stations are on P1
601 S FIG EV3; Enter garage, valet will direct you, stations are on P1.
601 S FIG EV5-6; Stations are on P5 near Elevator
601 S FIG EV7-8; Stations are on P5 near elevator.",Los Angeles,CA,90017,,888-758-4389,E,,Public,24 hours daily,,,,,,8,,,ChargePoint Network,http://www.chargepoint.com/,200-9,34.050833,-118.258866,2020-02-14,42256,2020-02-14 10:15:20 UTC,,,,,,,,,J1772,US,,,,Public,,public,,,,,,,,,,"Pricing is based on length of time. $0 per hour for the first 3 hours, and $5 per additional hour, maximum payment of $30, maximum session time is 24 hours",,,,,,,,,
ELEC,CITYNATNL PLAZA,400 S Flower St,"A-LVL #2; At valet parking
CITYNATNL-J2 #6; Located on the 5th Floor
CITYNATNL-J2 #7; located on the 5th Floor
CITYNATNL-J2 #8; Stations are on the 5th Floor
CITYNATNL-J2 #9
CITYNATNL-J2#10; -",Los Angeles,CA,90071,,888-758-4389,E,,Public,24 hours daily,,,,,,6,,,ChargePoint Network,http://www.chargepoint.com/,200-9,34.052162,-118.254614,2020-02-14,42257,2020-02-14 10:15:20 UTC,,,,,,,,,J1772,US,,,,Public,,public,,,,,,,,,,$1 per hour,,,,,,,,,
ELEC,BESTWESTERNPLUS,2959 Speno Dr,"VILLADELLAGO2
VILLADELLAGO3
VILLADELLAGO4; -
VILLADELLAGO5
VILLADELLAGO6
VILLADELLAGOINN",Patterson,CA,95363,,888-758-4389,E,,Public,24 hours daily,,,,,6,6,,,ChargePoint Network,http://www.chargepoint.com/,200-9,37.466692,-121.174905,2020-02-14,42267,2020-02-14 10:15:20 UTC,,,,,,,,,J1772 NEMA520,US,,,,Public,,public,,,,,,,,,,Free,,,,,,,,,
ELEC,EVSP WALGREENS,4200 Arden Way,STORE 4170,Sacramento,CA,95864,,888-758-4389,E,,Public,24 hours daily,,,,,,1,,,ChargePoint Network,http://www.chargepoint.com/,GPS,38.5949893,-121.365564,2020-02-14,42270,2020-02-14 10:15:20 UTC,,,,,,,,,J1772,US,,,,Public,,public,,,,,,,,,,"Pricing is based on length of time and kWh used. $0 per hour, and $10 per additional hour, $0.35 per kWh, maximum payment of $50",,,,,,,,,
ELEC,UCSF CAMPUS,1650 3rd St,1650 3RD STREET; Owens Street UCSF parking ,San Francisco,CA,94158,,888-758-4389,E,,Public,24 hours daily,,,,,,1,,,ChargePoint Network,http://www.chargepoint.com/,GPS,37.7686653,-122.3894348,2020-02-14,42273,2020-02-14 10:15:20 UTC,,,,,,,,,J1772,US,,,,Public,,public,,,,,,,,,,"$1.25 per hour, minimum payment of $1.25",,,,,,,,,
ELEC,UCSF CAMPUS,1625 Owens St,"MBEVSE1; -
MBEVSE2; -
MBEVSE3; -
MBEVSE4; -
OWENS STREET#2; 1625 Owens Street Parking",San Francisco,CA,94158,,888-758-4389,E,,Public,24 hours daily,,,,,,9,,,ChargePoint Network,http://www.chargepoint.com/,200-9,37.768282,-122.393862,2020-02-14,42274,2020-02-14 10:15:20 UTC,,,,,,,,,J1772,US,,,,Public,,public,,,,,,,,,,"$1.25 per hour, minimum payment of $1.25",,,,,,,,,
ELEC,EVSP WALGREENS,14280 San Pablo Ave,STORE 13796; The station is located left of the store's entrance,San Pablo,CA,94806,,888-758-4389,E,,Public,24 hours daily,,,,,,1,,,ChargePoint Network,http://www.chargepoint.com/,GPS,37.9645244,-122.3447793,2020-02-14,42276,2020-02-14 10:15:20 UTC,,,,,,,,,J1772,US,,,,Public,,public,,,,,,,,,,"Pricing is based on length of time and kWh used. $0 per hour, and $10 per additional hour, $0.35 per kWh, maximum payment of $50",,,,,,,,,
ELEC,BWP EV CHARGE,240 E Orange Grove Ave,"240 EAST O.G.#1; -
240 EAST O.G.#2; -
CIVIC CENTER 1; -
CIVIC CENTER 2",Burbank,CA,91502,,888-758-4389,E,,Public,24 hours daily,,,,,2,6,,,ChargePoint Network,http://www.chargepoint.com/,200-8,34.1821,-118.308962,2020-02-14,42319,2020-02-14 10:15:20 UTC,,,,,,,,,J1772 NEMA520,US,,,,Public,,public,,,,,,,,,,$0.1753 per kWh,,,,,,,,,
ELEC,BWP EV CHARGE,120 E Orange Grove Ave,"120 EAST O.G.#1; -
120 EAST O.G.#2; -",Burbank,CA,91502,,888-758-4389,E,,Public,24 hours daily,,,,,2,2,,,ChargePoint Network,http://www.chargepoint.com/,200-9,34.180832,-118.31012,2020-02-14,42321,2020-02-14 10:15:20 UTC,,,,,,,,,J1772 NEMA520,US,,,,Public,,public,,,,,,,,,,$0.1753 per kWh,,,,,,,,,
ELEC,BWP EV CHARGE,327 N Pass Ave,LAKE SIDE LVL 2,Burbank,CA,91505,,888-758-4389,E,,Public,24 hours daily,,,,,,2,,,ChargePoint Network,http://www.chargepoint.com/,200-8,34.1554259,-118.3458979,2020-02-14,42322,2020-02-14 10:15:20 UTC,,,,,,,,,J1772,US,,,,Public,,public,,,,,,,,,,$0.1753 per kWh,,,,,,,,,
ELEC,PLEASANTONEVSTN,5353 Sunol Blvd,SENIOR CENTER,Pleasanton,CA,94566,,888-758-4389,E,,Public,24 hours daily,,,,,,1,,,ChargePoint Network,http://www.chargepoint.com/,GPS,37.6521988,-121.8809433,2020-02-14,42374,2020-02-14 10:15:20 UTC,,,,,,,,,J1772,US,,,,Public,,public,,,,,,,,,,"Pricing is based on an hourly rate. $1 per hour, minimum payment of $1, maximum payment of $24, maximum session time is 24 hours",,,,,,,,,
ELEC,PALO ALTO USD,25 Churchill Ave,CHURCHILL AVE; Parking Permit Required during school hours,Palo Alto,CA,94306,,888-758-4389,E,,Public,24 hours daily,,,,,,1,,,ChargePoint Network,http://www.chargepoint.com/,GPS,37.4344826,-122.1533661,2020-02-14,42663,2020-02-14 10:15:20 UTC,,,,,,,,,J1772,US,,,,Public,,public,,,,,,,,,,Pricing is based on kWh used. $0.18 per kWh,,,,,,,,,
ELEC,COUNTY OF MARIN,3501 Civic Center Drive,"CC ADMIN 1; Located in the Administrative Building Upper Parking Lot off of Peter Behr Drive, Section B
CC MID ARCH
HOJ 01-02; -
HOJ 03-04; -
HOJ 05-06; -
HOJ 07-08; -
HOJ 09-10; -
HOJ 11-12; -
HOJ 13-14; -
HOJ 15-16; -
HOJ 17-18; -
HOJ 19-20; -
HOJ 21-22; -
HOJ 23-24; -
HOJ 25-26; -
HOJ 27-28; -
HOJ 29; -
HOJ 30; -
HOJ 31; -",San Rafael,CA,94903,,888-758-4389,E,,Public,24 hours daily,,,,,,35,,,ChargePoint Network,http://www.chargepoint.com/,200-9,37.99824,-122.532424,2020-02-14,42673,2020-02-14 10:15:20 UTC,,,,,,,,,J1772,US,,,,Public,,public,,,,,,,,,,"$1 per hour, maximum payment of $4",,,,,,,,,
ELEC,JOHN HANCOCK,111 W Ocean Blvd,"LMARK EV10; Stations are on Level A.
LMARK EV1; Stations are on Level 1.
LMARK EV2; Stations are on Level 1.
LMARK EV3; Stations are on Level 1.
LMARK EV4; Stations are on Level 1.
LMARK EV5 EV6; Stations are on Level A.
LMARK EV7 EV8; Stations are on Level A.
LMARK EV9; Stations are on Level A.",Long Beach,CA,90802,,888-758-4389,E,,Public,24 hours daily,,,,,,10,,,ChargePoint Network,http://www.chargepoint.com/,200-9,33.767581,-118.193026,2020-02-14,42676,2020-02-14 10:15:20 UTC,,,,,,,,,J1772,US,,,,Public,,public,,,,,,,,,,"Pricing is based on length of time. $0 per hour for the first 3 hours, and $5 per additional hour",,,,,,,,,
ELEC,CLUB@HARBOR PNT,475 E Strawberry Dr,"STATION 1; By fitness center 
STATION 2; By fitness center ",Mill Valley,CA,94941,,888-758-4389,E,,Public,24 hours daily,,,,,,4,,,ChargePoint Network,http://www.chargepoint.com/,200-9,37.884558,-122.502165,2020-02-14,42678,2020-02-14 10:15:20 UTC,,,,,,,,,J1772,US,,,,Public,,public,,,,,,,,,,Free,,,,,,,,,
ELEC,COUNTY OF MARIN,10 Ave of the Flags,EXHIBIT HALL,San Rafael,CA,94903,,888-758-4389,E,,Public,24 hours daily,,,,,,2,,,ChargePoint Network,http://www.chargepoint.com/,GPS,38.002416,-122.5334235,2020-02-14,42680,2020-02-14 10:15:20 UTC,,,,,,,,,J1772,US,,,,Public,,public,,,,,,,,,,"$1 per hour, maximum payment of $4",,,,,,,,,
ELEC,PMI 3003 OAK,3003 Oak Rd,"PLAZA LLC # 2; Public Parking Lot
PLAZA LLC; Public Parking Lot
STATION 1
STATION 2
STATION 3",Walnut Creek,CA,94597,,888-758-4389,E,,Public,24 hours daily,,,,,2,8,,,ChargePoint Network,http://www.chargepoint.com/,200-9,37.92896,-122.058582,2020-02-14,42687,2020-02-14 10:15:20 UTC,,,,,,,,,J1772 NEMA520,US,,,,Public,,public,,,,,,,,,,Free,,,,,,,,,
ELEC,EVSP WALGREENS,6144  Dewey Dr,STORE 5152; The station is located at the intersection of Greenback Ln and Dewey Drive,Citrus Heights,CA,95621,,888-758-4389,E,,Public,24 hours daily,,,,,,1,,,ChargePoint Network,http://www.chargepoint.com/,GPS,38.6778958,-121.3101501,2020-02-14,43198,2020-02-14 10:15:20 UTC,,,,,,,,,J1772,US,,,,Public,,public,,,,,,,,,,"Pricing is based on length of time and kWh used. $0 per hour, and $10 per additional hour, $0.35 per kWh, maximum payment of $50",,,,,,,,,
ELEC,EVSP WALGREENS,4051 Douglas Blvd,STORE 6036,Granite Bay,CA,95746,,888-758-4389,E,,Public,24 hours daily,,,,,,2,,,ChargePoint Network,http://www.chargepoint.com/,GPS,38.7440723,-121.2244833,2020-02-14,43201,2020-02-14 10:15:20 UTC,,,,,,,,,J1772,US,,,,Public,,public,,,,,,,,,,"Pricing is based on length of time and kWh used. $0 per hour, and $10 per additional hour, $0.35 per kWh, maximum payment of $50",,,,,,,,,
ELEC,UC IRVINE,Social Science Parking Structure University of California,"SSPS 3RD FLR 02; Social Science Parking Structure, third floor. Permit required.",Irvine,CA,92617,,888-758-4389,E,,Public,24 hours daily,,,,,,1,,,ChargePoint Network,http://www.chargepoint.com/,GPS,33.6474953,-117.8369141,2020-02-14,43203,2020-02-14 10:15:20 UTC,,,,,,,,,J1772,US,,,,Public,,public,,,,,,,,,,"$2.5 per hour, maximum payment of $24, maximum session time is 24 hours",,,,,,,,,
ELEC,UC IRVINE,4242 Campus Dr Student Center Parking Structure,"SCPS 1ST FLR 02; Student Center Parking Structure, first floor at SW corner. Permit required.
SCPS 1ST FLR 03; Student Center Parking Structure, first floor at SW corner. Permit required.",Irvine,CA,92612,,888-758-4389,E,,Public,24 hours daily,,,,,2,2,,,ChargePoint Network,http://www.chargepoint.com/,GPS,33.6496391,-117.8415909,2020-02-14,43204,2020-02-14 10:15:20 UTC,,,,,,,,,J1772 NEMA520,US,,,,Public,,public,,,,,,,,,,"$2.5 per hour, maximum payment of $24, maximum session time is 24 hours",,,,,,,,,
ELEC,UC IRVINE,4002 Mesa Rd Mesa Parking Structure,"MPS 1ST FLR 01; Mesa Parking Structure, first floor at NE corner. Permit required.
MPS 1ST FLR 02; Mesa Parking Structure, first floor at NE corner. Permit required.
MPS 1ST FLR 03; Mesa Parking Structure, first floor at NE corner. Permit required.",Irvine,CA,92617,,888-758-4389,E,,Public,24 hours daily,,,,,3,3,,,ChargePoint Network,http://www.chargepoint.com/,200-8,33.653073,-117.846752,2020-02-14,43205,2020-02-14 10:15:20 UTC,,,,,,,,,J1772 NEMA520,US,,,,Public,,public,,,,,,,,,,"$2.5 per hour, maximum payment of $24, maximum session time is 24 hours",,,,,,,,,
ELEC,EVSP WALGREENS,1401 Broadway,STORE 6613,Sacramento,CA,95818,,888-758-4389,E,,Public,24 hours daily,,,,,,1,,,ChargePoint Network,http://www.chargepoint.com/,GPS,38.5624567,-121.4942845,2020-02-14,43213,2020-02-14 10:15:20 UTC,,,,,,,,,J1772,US,,,,Public,,public,,,,,,,,,,"Pricing is based on length of time and kWh used. $0 per hour, and $10 per additional hour, $0.35 per kWh, maximum payment of $50",,,,,,,,,
ELEC,UC DAVIS TAPS,1333 Research Park Dr,"LOT 80; Located in Lot 80, UC Davis Extension Facilities ",Davis,CA,95618,,888-758-4389,E,,Public,24 hours daily,,,,,1,1,,,ChargePoint Network,http://www.chargepoint.com/,GPS,38.5387878,-121.7329102,2020-02-14,43471,2020-02-14 10:15:20 UTC,,,,,,,,,J1772 NEMA520,US,,,,Public,,public,,,,,,,,,,Free,,,,,,,,,
ELEC,Malibu Country Mart,3835 Cross Creek Rd,,Malibu,CA,90265,,,E,,Public,24 hours daily,,,,,,2,,,Non-Networked,,200-9,34.035802,-118.686393,2019-11-08,43478,2020-01-21 18:34:38 UTC,P,,,2011-08-20,,,,,J1772,US,,,,Public,,public,,,SHOPPING_CENTER,,,,,,,Free,,,,,,,,,
ELEC,EVSP WALGREENS,1420 Meadowview Rd,"STORE 13597
STORE 13597 (2)",Sacramento,CA,95832,,888-758-4389,E,,Public,24 hours daily,,,,,,2,,,ChargePoint Network,http://www.chargepoint.com/,200-9,38.480752,-121.504222,2020-02-14,43485,2020-02-14 10:15:20 UTC,,,,,,,,,J1772,US,,,,Public,,public,,,,,,,,,,"Pricing is based on length of time and kWh used. $0 per hour, and $10 per additional hour, $0.35 per kWh, maximum payment of $50",,,,,,,,,
ELEC,CITY OF VENTURA,501 Poli St,"CITY HALL 1
CITY HALL 2",Ventura,CA,93001,,888-758-4389,E,,Public,24 hours daily,,,,,,4,,,ChargePoint Network,http://www.chargepoint.com/,200-9,34.281889,-119.292427,2020-02-14,43505,2020-02-14 10:15:20 UTC,,,,,,,,,J1772,US,,,,Public,,public,,,,,,,,,,$1 per hour,,,,,,,,,
ELEC,Golden Gate National Recreation Area - Crissy Field,1199 E Beach,Crissy Field Center,San Francisco,CA,94129,,855-992-3678  888-264-2208,E,,Public,6am-12am daily,,,,,,2,,,Volta,https://voltacharging.com/,GPS,37.806099,-122.449461,2020-02-06,43526,2020-02-19 00:05:33 UTC,FG,16,Department of the Interior,2012-02-15,,,,,J1772,US,,,,Public,,public,,DOI,NATL_PARK,,,,,,,Free,,,,,,,,,
ELEC,EVSP WALGREENS,331 N Sepulveda Blvd,STORE 9882; The station is located right of the store's entrance,El Segundo,CA,90245,,888-758-4389,E,,Public,24 hours daily,,,,,,1,,,ChargePoint Network,http://www.chargepoint.com/,GPS,33.920674,-118.3967048,2020-02-14,43815,2020-02-14 10:15:20 UTC,,,,,,,,,J1772,US,,,,Public,,public,,,,,,,,,,"Pricing is based on length of time and kWh used. $0 per hour, and $10 per additional hour, $0.35 per kWh, maximum payment of $50",,,,,,,,,
ELEC,EVSP WALGREENS,1344 W Redondo Beach Blvd,STORE 7175; The station is located left of the store's entrance,Gardena,CA,90247,,888-758-4389,E,,Public,24 hours daily,,,,,,1,,,ChargePoint Network,http://www.chargepoint.com/,GPS,33.891236,-118.299452,2020-02-14,43817,2020-02-14 10:15:20 UTC,,,,,,,,,J1772,US,,,,Public,,public,,,,,,,,,,"Pricing is based on length of time and kWh used. $0 per hour, and $10 per additional hour, $0.35 per kWh, maximum payment of $50",,,,,,,,,
ELEC,EVSP WALGREENS,2900 Stockton Blvd,STORE 5374,Sacramento,CA,95817,,888-758-4389,E,,Public,24 hours daily,,,,,,1,,,ChargePoint Network,http://www.chargepoint.com/,GPS,38.5477882,-121.454897,2020-02-14,43822,2020-02-14 10:15:20 UTC,,,,,,,,,J1772,US,,,,Public,,public,,,,,,,,,,"Pricing is based on length of time and kWh used. $0 per hour, and $10 per additional hour, $0.35 per kWh, maximum payment of $50",,,,,,,,,
ELEC,EVSP WALGREENS,26531 Aliso Creek Rd,STORE 11241; The station is located to the left of the store's entrance,Aliso Viejo,CA,92656,,888-758-4389,E,,Public,24 hours daily,,,,,,1,,,ChargePoint Network,http://www.chargepoint.com/,GPS,33.5770994,-117.7237798,2020-02-14,44400,2020-02-14 10:15:20 UTC,,,,,,,,,J1772,US,,,,Public,,public,,,,,,,,,,"Pricing is based on length of time and kWh used. $0 per hour, and $10 per additional hour, $0.35 per kWh, maximum payment of $50",,,,,,,,,
ELEC,EVSP WALGREENS,3446 W Ball Rd,STORE 6954; The station is located right of the store's entrance,Anaheim,CA,92804,,888-758-4389,E,,Public,24 hours daily,,,,,,1,,,ChargePoint Network,http://www.chargepoint.com/,GPS,33.8167675,-118.0097102,2020-02-14,44406,2020-02-14 10:15:20 UTC,,,,,,,,,J1772,US,,,,Public,,public,,,,,,,,,,"Pricing is based on length of time and kWh used. $0 per hour, and $10 per additional hour, $0.35 per kWh, maximum payment of $50",,,,,,,,,
ELEC,EVSP WALGREENS,2560 W Ball Rd,STORE 10629; The station is left of the store's entrance,Anaheim,CA,92804,,888-758-4389,E,,Public,24 hours daily,,,,,,1,,,ChargePoint Network,http://www.chargepoint.com/,GPS,33.8171399,-117.9745443,2020-02-14,44408,2020-02-14 10:15:20 UTC,,,,,,,,,J1772,US,,,,Public,,public,,,,,,,,,,"Pricing is based on length of time and kWh used. $0 per hour, and $10 per additional hour, $0.35 per kWh, maximum payment of $50",,,,,,,,,
ELEC,EVSP WALGREENS,4142 Pacific Coast Hwy,STORE 2622; The station is located right of the store's entrance,Torrance,CA,90505,,888-758-4389,E,,Public,24 hours daily,,,,,,1,,,ChargePoint Network,http://www.chargepoint.com/,GPS,33.8064581,-118.3574274,2020-02-14,44423,2020-02-14 10:15:20 UTC,,,,,,,,,J1772,US,,,,Public,,public,,,,,,,,,,"Pricing is based on length of time and kWh used. $0 per hour, and $10 per additional hour, $0.35 per kWh, maximum payment of $50",,,,,,,,,
ELEC,CCSF SFMTA,255 3rd St,"MOSCONE CTR 1; Public Parking, Basement Level  - Parking Rates Apply
MOSCONE CTR 2; Public Parking, Basement Level - Parking Rates Apply
MOSCONE CTR 6; Garage",San Francisco,CA,94103,,888-758-4389,E,,Public,24 hours daily,,,,,2,4,,,ChargePoint Network,http://www.chargepoint.com/,200-8,37.784418,-122.39942,2020-02-14,44978,2020-02-14 10:15:20 UTC,,,,,,,,,J1772 NEMA520,US,,,,Public,,public,,,,,,,,,,"$0.29 per kWh, maximum payment of $5, $2 per session",,,,,,,,,
ELEC,CCSF SFMTA,360 Grove St,"360 GROVE ST #1; Public Parking Level 1 - Parking Rates Apply
360 GROVE ST #2; Public Parking Level 1 - Parking Rates Apply
360 GROVE ST #3; Public Parking Level 1 - Parking Rates Apply
360 GROVE ST #4; Public Parking Level 1 - Parking Rates Apply",San Francisco,CA,94102,,888-758-4389,E,,Public,24 hours daily,,,,,4,4,,,ChargePoint Network,http://www.chargepoint.com/,200-8,37.778072,-122.422703,2020-02-14,44979,2020-02-14 10:15:20 UTC,,,,,,,,,J1772 NEMA520,US,,,,Public,,public,,,,,,,,,,"$0.25 per kWh, maximum payment of $5, $2 per session",,,,,,,,,
